Name,Alternate Names,Population,Timezone,Geo_lat,Geo_long,km_to_moscow
Abadzekhskaya,"Abadsechskaja,Abadzechskaja,Abadzehskaya,Abadzejskaya,Abadzekhs'ka,Abadzekhskaia,Abadzekhskaja,Abadzekhskaya,Abadzekhski,Abadzéjskaya,Abadzékhskaia,abadzkhskaya,abadzykskaya  adyghya,Абадзехская,Абадзехски,Абадзехська,آبادزخسکایا,أبادزيكسكايا، أديغيا",4010,3.0,44.39389,40.22139,1276.37
Abagur,"Abagur,Abinskaya,Абагур",6530,7.0,53.7308,87.2526,3125.43
Abakan,"ABA,Abakan,Abakan shaary,Abakana,Abakanas,Abakanskoye,Abakán,Agban,Ampakan,a ba kan,abakan,abakana,Αμπακάν,Абакан,Абакан шаары,Ағбан,Աբական,آباکان,أباكان,اباکان,अबाकान,ਅਬਾਕਾਨ,アバカン,阿巴坎,아바칸,Абакан",184168,7.0,53.71556,91.42917,3374.74
Abalak,"Abalak,Abalakskoye,Абалак",13555,5.0,58.12861,68.59444,1880.51
Aban,"Aban,Alban,aban  krasnwyarsk dyary,aban  krasnwyarsk kray,abani,Абан,آبان، کراسنویارسک دیاری,أبان، كراسنويارسك كراي,აბანი",9670,7.0,56.6787,96.0658,3504.61
Abatskoye,"Abatskij,Abatskiy,Abatskoe,Abatskoye,Абатский,Абатское",8195,5.0,56.28748,70.45553,2022.39
Abaza,"Abasa,Abaz,Abaza,Abazá,a ba zha,abaza,abaza shhr,Абаза,آبازا,آبازا،شهر,أبازا,ابازا,ਅਬਾਜ਼ਾ,阿巴扎,Абаза",18094,7.0,52.655,90.09278,3347.83
Abdulino,"Abdoulino,Abdulina,Abdulinas,Abdulino,Abdulla,Abduļina,Abdúlino,a bo du li nuo,abadulino,abdullino,abdwlynw,abeudullino,Абдулино,Абдулла,Абдуліна,Абдуліно,آبدولینو,أبدولينو,ابدولینو,ਅਬਦੂਲੀਨੋ,阿卜杜利诺,아브둘리노,압둘리노,Абдулино",21195,5.0,53.7,53.66667,1053.08
Abinsk,"Abins'k,Abinsk,Abinska,Abinskas,Abinskaya,Abinskiy,Abińsk,a bin si ke,abinseukeu,abisaka,abynsk,Абинск,Абинск балһсн,Абінск,Абінськ,آبینسک,أبينسك,ابینسک,ਅਬਿੰਸਕ,阿宾斯克,아빈스크,Абинск",34926,3.0,44.8679655,38.1618157,1210.89
Abram Mys,"Abram Mys,Abram-Mys,Goryacheva,Goryachëva,Poselok Goryacheva,Posëlok Goryacheva,Varjazhskij Ruchej,Абрам Мыс,Абрам-Мыс,Варяжский Ручей",2000,3.0,68.97839,33.01926,1488.65
Abramovka,"Abramovka,Abramowka,abramwfka  fwrwnyj awblast,Абрамовка,أبراموفكا، فورونيج أوبلاست",3396,3.0,51.1886,41.0202,555.07
Abrau-Dyurso,"Abrau-Djurso,Abrau-Dyurso,Абрау-Дюрсо",3000,3.0,44.69973,37.60098,1228.98
Abzakovo,"Abzakova,Abzakovo,Абзаково",3600,5.0,53.82861,58.59333,1356.41
Achikulak,"Achikulak,Achikulakskoye,Atsjikulak,Ачикулак",7040,3.0,44.55167,44.83778,1345.82
Achinsk,"ACS,Achins'k,Achinsk,Achynsk,Acinsk,Acinska,Acinskas,Aczynsk,Aczyńsk,Atchinsk,Atjinsk,Atschinsk,Atsinsk,Atsjinsk,Atxinsk,Atšinsk,Açinsk,Aĉinsk,Ačinsk,Ačinska,Ačinskas,a qin si ke,achinseukeu,achinsuku,achynsk,akisaka,atshynsk,Àtxinsk,Áchinsk,Ачинск,Ачинськ,Ачынск,آچینسک,أتشينسك,اچینسک,ਅਕਿੰਸਕ,アチンスク,阿钦斯克,아친스크,Ачинск",117634,7.0,56.2694,90.4993,3206.05
Achisu,"Achi,Achisu,Ачи,Ачису",1737,3.0,42.65197,47.68282,1626.15
Achit,"Achit,Achitskoye,Achyt,Acit,Aczit,Atschit,Açit,a qi te,achyt  rwsyh,atshyt,Ачит,Ачыт,Әчет,Աչիտ,آچیت، روسیه,أتشيت,阿奇特",5036,5.0,56.7985,57.8994,1252.98
Achkhoy-Martan,"Achkhoi-Martan,Achkhoj-Martan,Achkhoy-Martan,Achoj-Martan,Atsjkhoj-Martan,Ačhoj-Martan,Iashkhojn-Marta,Novosel'skoe,Novosel'skoye,Novosel’skoe,Novosel’skoye,TIekh'a-Marta,Thexa-Marta,Theẋa-Marta,Wasxoyn-Marta,Waşxoyn-Marta,Іашхойн-Марта,Ачхой-Мартан,Новосельское,ТІехьа-Марта",16779,3.0,43.19219,45.28345,1500.31
Adamovka,"Adamovka,Адамовка",7994,5.0,51.5223,59.9396,1537.23
Adil’-Yangiyurt,"Adil'-Jangi-Jurt,Adil'-Jangijurt,Adil'-Yangiyurt,Adil’-Yangiyurt,Адиль-Янги-Юрт,Адиль-Янгиюрт",4017,3.0,43.56328,46.58462,1498.39
Adler,"Adler,Adlerskij rajon,Adlersky City District,Adlersky rajon,Adlerský rajón,District Adlerski,Distrito de Adler,Distrito de Ádler,a de lie er,Адлер,Адлерский район,阿德列爾",70200,3.0,43.42896,39.92391,1380.15
Admiralteisky,"Admiraltejskij,Адмиралтейский",157897,3.0,59.923,30.3,633.79
Adyge-Khabl,"Adige-Habl,Adige-Khabl',Adige-Xabl,Adigue-Khabl,Adigué-Khabl,Adyge-Chabl,Adyge-Khabl,Adyge-Khabl',Adyge-Khabl’,Adygeh-Khabl',Adygie-Chabl,Adıge-Habl,Adıge-Xabl,adyj-kabl  qratshay - tshyrkysya,Адиге-Хабль,Адыге-Хабль,Адыгэ-Хабль,Ադիգե-Խաբլ,أديج-كابل، قراتشاي - تشيركيسيا",3666,3.0,44.33434,41.93922,1305.97
Adygeysk,"Adigejsk,Adigeysk,Adygeisk,Adygeiskas,Adygejsk,Adygeysk,Teuchezhsk,adigeiseukeu,adigejsk,adygejsk,Адигејск,Адыгейск,아디게이스크,Адыгейск",12689,3.0,44.878414,39.190289,1214.19
Afanas’yeva,"Afanas'eva,Afanas'evo,Afanas'yeva,Afanas'yevo,Afanas’yeva,Afanas’yevo,Afonas'yevo,Afonas’yevo,Афанасьева,Афанасьево",1100,8.0,54.63958,100.61755,3860.37
Afanas’yevo,"Afanas'evo,Afanas'yevo,Afanas'yevskaya,Afanas'yevskoye,Afanas’yevo,Afanas’yevskaya,Afanas’yevskoye,Афанасьево",0,3.0,58.86548,53.25804,998.36
Afipskiy,"Afipskij,Afipskiy,Georgiafipskaya,Georgiye-Afipskaya,Афипский",18209,3.0,44.90005,38.84265,1209.8
Afonino,"Afonino,Афонино",3182,3.0,56.26201,44.09503,406.63
Afrikanda,"Africanda,Afrikanda,Haapalahti,Pasjolak Afrykanda,Poselok Afrikanda,Posëlok Afrikanda,afrykanda,afrykanda  mwrmansk,Африканда,Пасёлак Афрыканда,Աֆրիկանդա,آفریکاندا,أفريكاندا، مورمانسك",1800,3.0,67.44289,32.78279,1323.86
Agalatovo,"Agalatova,Agalatovo,Agalatowo,Agałatowo,Ohalatva,a jia la tuo wo,aghalatwfw,aqalatwww,Агалатово,Ագալատովո,آقالاتووو,أغالاتوفو,阿加拉托沃",5028,3.0,60.2195,30.27388,658.05
Agapovka,"Agapovka,Agapovo,Agapovskiy,Агаповка",6362,5.0,53.2973,59.1348,1409.21
Ageyevo,"Ageevo,Ageyevo,Агеево",5934,3.0,54.15883,36.46927,191.69
Agidel,Агидель,16365,5.0,55.8999056,53.9220144,1016.26
Agidel’,"Aghidhel,Agidel,Agidel',Agideli,Agidelis,Agidelj,Agidel’,Takmalachuk,agidel,Агидель,Агидељ,아기델",19217,5.0,55.9077,53.9355,1017.01
Aginskoye,"Aga,Aginskoe,Aginskoje,Aginskoye,Agińskoje,aginseukoye,Ага,Агинское,Агинскоје,아긴스코예",17496,9.0,51.1,114.53,4855.99
Agirish,"Agirish,Akrysh,Агириш",2886,5.0,61.92472,63.02306,1601.15
Agoy,"Agoj,Agoy,Aguy,Агой",1800,3.0,44.1466,39.0373,1294.42
Agronom,"Agronom,Агроном",3820,3.0,45.14021,39.19484,1185.21
Agryz,"AEgerce,Agriz,Agroz,Agrys,Agryz,Agryzas,Agrõz,a ge lei ci,ageuliseu,aghryz,agriza,agryz,aguruizu,Ägerce,Əgerce,Агриз,Агрыз,Әгерҗе,آگریز,أغريز,اگریز,ਆਗ੍ਰੀਜ਼,アグルィズ,阿格雷兹,아그리스,Агрыз",19299,3.0,56.5232864,52.9943775,954.66
Agvali,"Ageali,Agvali,Agvaly,Агвали",2158,3.0,42.53798,46.12519,1591.6
Ak-Dovurak,"Ak Dovurakas,Ak-Davurak,Ak-Dovoerak,Ak-Dovourak,Ak-Dovurak,Ak-Dowurak,Ak-Tovurak,a ke duo wu la ke,agdobulag,ak dwwwrak,ak-dwwwrak,aka-dovuraka,akl-dwfwrak,Ак-Давурак,Ак-Довурак,آک-دوووراک,أكل-دوفوراك,اک دوووراک,ਅਕ-ਡੋਵੂਰਾਕ,阿克多武拉克,악도부락,Ак-Довурак",13469,7.0,51.178452,90.5985129,3456.28
Akademgorodok,"Akademgorodok,Akademicheskiy Gorodok,Gorod Nauki,Novosibirskij Akademgorodok,Novosibirskiy Nauchnyy Tsentr,Science City,akademgolodokeu,akademugorodoku,akadymjwrwdwk,Академгородок,Новосибирский Академгородок,أكاديمجورودوك,アカデムゴロドク,아카뎀고로도크",50000,7.0,54.8523,83.106,2829.1
Akademicheskoe,"Akademicheskoe,Академическое",103304,3.0,60.01375,30.39471,637.08
Akhtanizovskaya,"Achtanisowskaja,Akhtanizovskaja,Akhtanizovskaya,Ахтанизовская",3342,3.0,45.32128,37.10071,1160.43
Akhtubinsk,"Achtubinsk,Achtubińsk,Ahtubinsk,Akhtubinsk,Aĥtubinsk,Ахтубинск,Ахтубинск",44551,4.0,48.28339,46.16519,1014.28
Akhty,"Achty,Ahto,Ahtõ,Akhceg',Akhta,Akhtay,Akhti,Akhty,Axti,Sjalo Akhty,a gan ti,akhty,Ахта,Ахти,Ахты,Ахцегь,Сяло Ахты,Ախտի,أختي,阿幹提",14080,3.0,41.45949,47.73247,1750.52
Akhtyrskiy,"Akhtyrskij,Akhtyrskiy,Ахтырский",19468,3.0,44.8546,38.3031,1212.73
Akhunovo,"Akhunova,Akhunovo,Ахуново",3800,5.0,54.2079,59.6017,1407.37
Aknada,"Aknada,Aknoda,Ankoda,Акнада",4070,3.0,42.40155,46.17228,1607.19
Aksakovo,"Aksakovo,Аксаково",3179,5.0,54.03333,54.15,1071.8
Aksarayskiy,"Aksarajskij,Aksarayskiy,Аксарайский",3323,4.0,46.79244,48.01188,1228.3
Aksarka,"Aksarka,Oksarka,aksarka  jamalw-nynyts,aksarka  rwsyh,Аксарка,آکسارکا، روسیه,أكساركا، جامالو-نينيتس",2576,5.0,66.56056,67.7975,1983.79
Aksay,"Aksaj,Aksay,Aksayskaya,Аксай,Аксай",41984,3.0,47.2676314,39.8756872,956.19
Aksha,"Aksha,Aksja,Акша",3950,9.0,50.28139,113.28667,4842.06
Aktanysh,"Aktanysh,Aktanysj,Актаныш",8163,3.0,55.72156,54.08293,1028.47
Aktash,"Aktash,Акташ",3374,7.0,50.313,87.602,3321.02
Aktyubinskiy,"Ak-Tubya,Aktjubinskij,Aktyubinskiy,Актюбинский",9964,3.0,54.81372,52.80559,965.63
Akusha,"Agusha,Akusha,Akusja,Агуша,Акуша",4810,3.0,42.27505,47.34496,1654.39
Ak”yar,"Akjar,Akujar,Ak”yar,Khaibulina,Khaybulino,Khaybullino,Акъяр",5549,5.0,51.85905,58.22136,1414.44
Alabushevo,"Alabushevo,Alabusjevo,Алабушево",2733,3.0,56.01667,37.15,41.32
Alagir,"Alagir,Alagiras,Alaguir,Ałagir,a la ji er,alaghyr,alagir,alagira,alagyr,allagileu,Алагир,Алагир балһсн,Алагір,Ալագիր,آلاگیر,ألاغير,الاگیر,ਅਲਾਗਿਰ,阿拉吉尔,알라기르,Алагир",20949,3.0,43.0417684,44.2199715,1490.31
Alakurtti,"Alakurti-Tuntsa,Alakurtti,Allakurtti,Алакуртти",6293,3.0,66.9672,30.34905,1303.71
Alandskoye,"Alandskaja,Alandskiy,Alandskoe,Alandskoje,Alandskoye,Posten № 14,Аландская,Аландское",1418,5.0,52.22611,59.79389,1494.79
Alapayevsk,"Alapaevs'k,Alapaevsk,Alapajevsk,Alapajewsk,Alapayevsk,Alpaevsk,Ałapajewsk,Алапаевск,Алапаєвськ,Алапајевск,Алапаевск",44000,5.0,57.85158,61.69627,1476.44
Alatyr,Алатырь,38202,3.0,54.8397989,46.5721997,575.6
Alatyr’,"Alatyr,Alatyr',Alatyr’,Ulatar,Алатырь,Улатăр",42156,3.0,54.8421,46.5813,576.1
Aldan,"ADH,Aldan,Aldanas,Ałdan,Nezametnyy,aldan,Алдан,알단,Алдан",24426,9.0,58.61021,125.39613,4914.15
Aleksandriya,"Aleksandria,Aleksandrija,Aleksandriya,Александрия",4223,3.0,45.09472,43.24556,1249.36
Aleksandriyskaya,"Aleksandrijskaja,Aleksandriyskaya,Александрийская",10279,3.0,44.22722,43.34528,1344.25
Aleksandro-Nevskiy,"Aleksandro-Nevskaya,Aleksandro-Nevskij,Aleksandro-Nevskiy,Aleksandro-Nevskoye,Александро-Невский",4030,3.0,53.47548,40.2099,303.26
Aleksandrov,"Aleksandrov,Aleksandrova,Aleksandrovas,Aleksandrovo,Aleksandrow,Aleksàndrov,Aleksándrov,Alexandrov,Alexandrow,Aljaksandrau,alaigazaindarova,alksandrwf,allegsandeulopeu,alygzndrwf  wladymyr awblast,alyksandrwf,arekusandorofu,ya li shan de luo fu,Александров,Аляксандраў,أليكساندروف,الکساندروف,الیکساندروف,الیگزندروف، ولادیمیر اوبلاست,ਅਲੈਗਜ਼ੈਂਡਰੋਵ,アレクサンドロフ,亞歷山德羅夫,알렉산드로프",64088,3.0,56.39516,38.71452,98.8
Aleksandrov Gay,"Aleksandrov Gaj,Aleksandrov Gay,Александров Гай",9919,4.0,50.14704,48.57037,960.93
Aleksandrovka,"Aleksandrovka,Aleksandrovskaja,Aleksandrovskaya,Nal'chik,Nal’chik,Александровка,Александровская,Нальчик",4014,3.0,43.49368,43.64776,1429.33
Aleksandrovsk,"Aleksandrovsk,Aleksandrovsk i Russland,Aleksandrovskas,Aleksandrovskiy,Aleksandrowsk,Alekszandrovszk,Alexandrovsk,Alexandrowsk,Aljaksandrausk,Lytva,ailaigazaindrovasaka,alksandrwfsk  prm,allegsandeulobseukeu,alygzndrwwsk  pyrm krayy,alyksandrwfysk,ya li shan de luo fu si ke,Александровск,Аляксандраўск,Лытва,أليكساندروفيسك,الکساندروفسک، پرم,الیگزندرووسک، پیرم کرائی,ਐਲੈਗਜ਼ੈਂਡ੍ਰੋਵਸਕ,亞歷山德羅夫斯克,알렉산드롭스크",15486,5.0,59.1581,57.5695,1246.76
Aleksandrovsk-Sakhalinskiy,"Aleksandrovsk,Aleksandrovsk-Sakhalinskij,Aleksandrovsk-Sakhalinskiy,Aleksandrovski,Alexandrovsk,UHS,Александровск-Сахалинский",12024,11.0,50.89926,142.16215,6279.47
Aleksandrovskaya,"Aleksandrovskaja,Aleksandrovskaya,Aleksandrovskiy,Александровская",4000,3.0,60.05168,29.97935,656.58
Aleksandrovskiy Zavod,"Aleksandrovski Zavod,Aleksandrovskij Zavod,Aleksandrovskiy Zavod,Alexsandrovskiy Zavod,Александровский Завод",2516,9.0,50.92525,117.93773,5055.41
Aleksandrovskoye,"Aleksandrovskoe,Aleksandrovskoje,Aleksandrovskoye,Alexandrowskoje,Alyeksandrovskoe,Александровское",28006,3.0,44.71417,43.00083,1284.79
Alekseyevka,"Alekseevka,Aleksejevka,Alekseyevo,Алексеевка",78000,3.0,55.63,37.8,17.84
Alekseyevskaya,"Alekseevskaja,Alekseevskaya,Alekseyevskaya,Алексеевская",4205,3.0,50.2907,42.1846,679.5
Alekseyevskoye,"Alekseevskoe,Alekseyevskoye,Алексеевское",9738,3.0,55.30706,50.11353,787.03
Aleksin,"Aleksin,Aleksinas,Aleksine,Alexin,a lie ke xin,alekasina,alksyn,allegsin,alyksn,alyksyn,arekushin,Алексин,Алексін,آلکسین,أليكسين,الیکسن,ਅਲੇਕਸਿਨ,アレクシン,阿列克辛,알렉신,Алексин",66885,3.0,54.50484,37.06697,143.02
Alexandrov,Александров,61544,3.0,56.391819,38.7111123,98.39
Alexandrovsk,Александровск,15022,5.0,59.1613221,57.5763459,1247.2
Alexandrovsk-Sakhalinsky,Александровск-Сахалинский,10613,11.0,50.8974378,142.1578559,6279.43
Alexeyevka,"Alekseevka,Aleksejevka,Alekseyevka,Alexejewka,Alexeyevka,Алексе́евка,Алексеевка,Алексеевка",39848,3.0,50.63092,38.6903,573.93
Aleysk,"Aleisk,Aleiskas,Alejs'k,Alejsk,Aleysk,Aleyskaya,Aleyskoye,Aleïsk,a lie yi si ke,alesaka,alleiseukeu,alysk,Алейск,Алейськ,Алејск,Ալեյսկ,آلیسک,أليسك,الیسک,ਅਲੇਸਕ,阿列伊斯克,알레이스크,Алейск",28528,7.0,52.4922513,82.7793606,2912.32
Algatuy,"Algatuj,Algatuy,Алгатуй",1300,8.0,54.4009,100.255,3852.4
Ali-Berdukovskiy,"Ali-Berdukovskij,Ali-Berdukovskiy,Aliberdukovskaya,Али-Бердуковский",5093,3.0,43.98952,41.74212,1340.36
Ali-Yurt,"Ali-Jurt,Ali-Yurt,Naron,Али-Юрт",7593,3.0,43.1425,44.8525,1494.61
Alikovo,"Alikovo,Ehlek,alykwfw,Аликово,Аліково,Элĕк,Әлек,Ալիկովո,أليكوفو",2886,3.0,55.73827,46.75493,571.61
Alkhan-Churt,"Alhan-Curt,Alhan-Čurt,Alkhan-Churt,Alkhan-Churtskij,Alkhan-Tsjurt,Alxan-Curtskii,Alxan-Çurtskii,Алхан-Чурт,Алхан-Чуртский",7666,3.0,43.35194,44.78694,1470.81
Alkhan-Kala,"Alhan-Kala,Alkhan-Kala,Ialkhan-GIala,Mezdugor'e,Mezhdugor'e,Mezhdugor'ye,Mezhdugor’ye,Meždugor’e,Walxan-Gala,Walxan-Ġala,Іалхан-ГІала,Алхан-Кала,Междугорье",10168,3.0,43.25861,45.53917,1500.11
Alkhan-Yurt,"Ajvazovskoe,Alchantschurt,Alhan-Jurt,Alkhan-Jurt,Alkhan-Yurt,Ayvazovo,Ayvazovskoe,Ayvazovskoye,Ermolovskaja,Ermolovskaya,Ialkhan-Jurt,Walxan-Yurt,Іалхан-Юрт,Айвазовское,Алхан-Юрт,Ермоловская",8879,3.0,43.23179,45.57228,1503.82
Alkhazurovo,"Alhazurovo,Alkhazurovo,Khel'dikhiroj,Khel'dikhiroy,Khel’dikhiroy,Olkhazar-KIotar,Olkhazaran-KIotar,Olxazar-Khotar,Olxazaran-Khotar,Privol'noe,Privol'noye,Privol’noe,Privol’noye,Алхазурово,Олхазар-КІотар,Олхазаран-КІотар,Привольное,Хельдихирой",5452,3.0,43.0639,45.65134,1523.56
Alleroy,"Alleroj,Alleroy,Shuragat,Suragat,Şuragat,Аллерой,Шурагат",10247,3.0,43.21711,46.28209,1525.22
Almaznyy,"Almaznyj,Almaznyy,Алмазный",3080,3.0,48.04476,40.04501,872.95
Almetyevsk,Альметьевск,146309,3.0,54.9014619,52.2970467,931.76
Alnashi,"Alnashi,Alnasji,Алнаши",6205,4.0,56.18738,52.47919,924.4
Alpatovo,"Alpatov,Alpatovo,Naurskiy,Алпатово",5192,3.0,43.7028,45.24154,1445.55
Altayskoye,"Altaisk,Altaiskoe,Altajskij,Altajskoe,Altayskiy,Altayskoye,Алтайский,Алтайское",13852,7.0,51.95333,85.3325,3094.85
Altud,"Altud,Tambievo,Алтуд",5578,3.0,43.72194,43.86583,1409.7
Altuf’yevskiy,"Altuf'evskij,Altuf'yevskiy,Altuf’yevskiy,Vorob'yevskiy,Vorob’yëvskiy,Алтуфьевский",54000,3.0,55.88333,37.58333,14.72
Altukhovo,"Altukhova,Altukhovo,Алтухово",1908,3.0,52.67559,34.36703,401.96
Alzamay,"Alzamaj,Alzamay,Alzamayskoye,Алзамай,Алзамай",7058,8.0,55.5562,98.6644,3703.22
Al’met’yevsk,"Al'met'evsk,Al'met'yevo,Al'met'yevsk,Aljmetjevsk,Almetjevsk,Almetjewsk,Almetyevsk,Al’met’yevo,Al’met’yevsk,Əlmət,Альметьевск,Әлмәт",140437,3.0,54.90442,52.3154,932.84
Amazar,"Amazar,Амазар",2527,9.0,53.86033,120.87925,5009.34
Amga,"Amga,Amia,Amma,Sjalo Amga,amgha,Амга,Амма,Сяло Амга,Ամգա,أمغا",6151,9.0,60.90009,131.97882,5054.55
Amin’yevo,"Amin'evo,Amin'yevo,Aminjevo,Amin’yevo,Аминьево",30000,3.0,55.7,37.46667,10.98
Amursk,"Amoursk,Amurs'k,Amursk,Amurskas,Amursko,Padali,a mu er si ke,amuleuseukeu,amurasaka,amurusuku,amwrsk,Αμούρσκ,Амурск,Амурськ,آمورسک,أمورسك,ਅਮੁਰਸਕ,アムールスク,阿穆尔斯克,아무르스크,Амурск",46993,10.0,50.23685,136.88136,6085.52
Amurzet,"Amurzet,Амурзет",5213,10.0,47.69541,131.09493,6000.04
Amzya,"Amzja,Amzya,Амзя",4843,5.0,56.2346,54.385,1041.69
Anadyr,"Anadir,Anadira,Anadirj,Anado,Anador,Anadyr,Anadyr',Anadyris,Anadyrsk,Anadyr’,Anadîr,Anadõr,Anadır,Anantir,Anàdir,Anádyr,DYR,Novo-Mariinsk,Novo-Mariinskiy,Post Novo-Mariinskiy,Qagiirgiin,a na de er,anadili,anadira,anadiri,anadyr,ʼnʼdyr,Ανάντιρ,Анадир,Анадыр,Анадырь,אנאדיר,آنادیر,أنادير,ਅਨਾਦਿਰ,ᑲᒌᕐᒌᓐ,アナディリ,阿纳德尔,아나디리,Анадырь",15604,12.0,64.73424,177.5103,6191.33
Anapa,"AAQ,Anaapa,Anap,Anapa,Anape,a na pa,anaba,anapa,xa na pa,Ανάπα,Анаапа,Анапа,Анапа балһсн,Анапе,Անապա,آناپا,أنابا,اناپا,ਅਨਾਪਾ,อะนาปา,ანაპა,アナパ,阿纳帕,아나파,Анапа",58983,3.0,44.8950433,37.3163282,1207.45
Anapskaya,"Anapskaja,Anapskaya,Анапская",13965,3.0,44.89671,37.386,1207.19
Anastasiyevka,"Anastas'yevka,Anastasievka,Anastasijevka,Anastasiyevka,Anastassjewska,Anastas’yevka,Анастасиевка",1684,3.0,47.56072,38.52837,913.01
Anastasiyevskaya,"Anastasevskaya,Anastasievskaja,Anastasijevskaja,Anastasiyevka,Anastasiyevskaya,Anastassijewskaja,Анастасиевская",11204,3.0,45.21576,37.89258,1171.76
Andi,"Andi,Анди",5318,3.0,42.78359,46.26171,1569.75
Andra,"Andra,Karakarskiye,Андра",2013,5.0,62.51472,65.88778,1760.6
Andreapol,Андреаполь,8265,3.0,56.6506724,32.2620163,345.78
Andreapol’,"Andreapol',Andreapol’,Dubno,Андреаполь",9209,3.0,56.65087,32.264,345.67
Andreyevka,"Andreevka,Andrejevka,Andreyevka,Андреевка",8395,3.0,55.98028,37.135,39.27
Andreyevo,"Andreevo,Andreyevo,Andreyevskiy,Poselok Andreyevskiy,Posëlok Andreyevskiy,Андреево",5204,3.0,55.9465,41.1505,221.69
Andreyevskoye,"Andreevskoe,Andrejevskoje,Andreyevka,Andreyevskaya,Andreyevskoye,Андреевское",20000,3.0,55.55487,37.92566,29.33
Andzhiyevskiy,"Anciyevskiy,Andzhievski,Andzhievskij,Andzhiyevskiy,an ji ye fu si ji,andjyfsky,andzhyywayskay,Анджиевски,Анджиевский,آندژییوایسکای,أندجيفسكي,安吉耶夫斯基",6755,3.0,44.23889,43.08556,1337.56
Angarsk,"Angars'k,Angarsk,Angarska,Angarskas,Angarskiy,Angarszk,Anqarsk,agarasaka,an jia er si ke,angaleuseukeu,angarsk,angarusuku,angharsk,Ангарск,Ангарськ,آنگارسک,أنغارسك,انگارسک,ਅੰਗਾਰਸਕ,アンガルスク,安加尔斯克,안가르스크,Ангарск",243158,8.0,52.53667,103.88639,4164.43
Aniva,"Aniva,Aniwa,Rudaka,Rutaka,a ni wa,aniba,aniwa,anyfa,anywa,Анива,Аніва,آنیوا,أنيفا,انیوا,アニワ,阿尼瓦,아니바,Анива",8449,11.0,46.713152,142.5265804,6653.84
Anna,"Anna,Tulinovo,Анна",19148,3.0,51.48993,40.4192,508.63
Annino,"Annino,Аннино",30000,3.0,55.58316,37.26019,29.16
Anopino,"Anopenskiy,Anopino,Poselok Anopenskiy,Posëlok Anopenskiy,Анопино",1972,3.0,55.69809,40.66707,191.17
Ansalta,"Ansalta,Ансалта",5654,3.0,42.68941,46.11782,1575.55
Antipino,"Antipina,Antipino,Антипино",5147,5.0,57.10679,65.75755,1724.49
Antipovka,"Antipovka,Антиповка",3021,3.0,49.82994,45.31216,836.52
Anton’yevka,"Anton'evka,Anton'yevka,Anton'yevskoye,Antonjevskoje,Antonovskaya,Antonovskoye,Antonoyskaya,Anton’yevka,Anton’yevskoye,Антоньевка",1500,7.0,51.9961,83.974,3009.58
Antropovo,"Antropova,Antropovo,Антропово",3736,3.0,58.40016,43.00833,438.99
Anuchino,"Akuchino,Anuchino,Anutsjino,Анучино",4658,10.0,43.96571,133.05846,6407.78
Anzhero-Sudzhensk,"Anjero-Sudjensk,Anschero-Sudschensk,Anshero-Sudshensk,Anzero-Sudzensk,Anzherka,Anzhero-Sudzhenka,Anzhero-Sudzhensk,Anzhero-Sujensk,Anĵero-Sudĵensk,Anžero-Sudžensk,Sudzhenka,anjelosujenseukeu,Анжеро-Судженск,안제로수젠스크,Анжеро-Судженск",82526,7.0,56.081,86.0285,2954.42
Anzorey,"Anzorej,Anzorey,Anzorovo,Staryj Lesken,Staryy Lesken,Анзорей,Анзорово,Старый Лескен",0,3.0,43.35582,43.94143,1450.5
Apastovo,"Apas,Apastava,Apastovo,Apastowo,Apasztovo,Apàstovo,a pa si tuo wo,abastwfw,apastwww,Апас,Апастава,Апастово,آپاستووو,أباستوفو,阿帕斯托沃",4575,3.0,55.20293,48.51091,688.59
Apatity,"Apatiitti,Apatit,Apatitad,Apatitai,Apatiti,Apatito,Apatity,Apatitî,Apatitõ,Apatitı,Apatyty,KVK,a pa ji te,abatyty,apachitoui,apatiti,apatyty,Апатити,Апатиты,Апатыты,آپاتیتی,أباتيتي,اپاتیتی,アパチートゥイ,阿帕季特,아파티티,Апатиты",61186,3.0,67.58267,33.41339,1333.3
Aprelevka,"Aprehleuka,Aprelevka,Aprelewka,Aprielewka,Aprjelewka,Aprélevka,a pu lei lie fu ka,abrylyfka,apeulellebka,aprlfka,aprylfka,aprylywka,apurerefuka,Апрелевка,Апрелевка балһсн,Апрелєвка,Апрељевка,Апрэлеўка,آپرلفکا,أبريليفكا,اپریلفکا,اپریلیوکا,アプレレフカ,阿普雷列夫卡,아프렐렙카,Апрелевка",18467,3.0,55.5276918,37.065143,42.62
Apsheronsk,"Apcheronsk,Apscheranskaja,Apscheronsk,Apscheronskij,Apseronsk,Apseronskas,Apsharonsk,Apsheron,Apsherons'k,Apsheronsk,Apsheronskaya,Apsheronskiy,Apsjeronsk,Apszeronsk,Apszerońsk,Apxeronsk,Apŝeronsk,Apšeronsk,Apšeronskas,a pu xie lun si ke,abshrwnsk,abshyrwnsk,absyelonseukeu,apshyrwnsk,Апшаронск,Апшеронск,Апшеронск балһсн,Апшеронськ,آبشرونسک,أبشيرونسك,اپشیرونسک,阿普歇倫斯克,압셰론스크,Апшеронск",40451,3.0,44.46472,39.73417,1264.02
Aramil,"Aramil,Aramil',Aramilis,Aramiľ,a la mi er,alamil,aramyl,Αραμίλ,Арамил,Арамиль,Арамиљ,Араміль,Әрәмәле,آرامیل,أراميل,ارامیل,阿拉米爾,아라밀,Арамиль",15237,5.0,56.6977,60.8369,1432.4
Arbazh,"Arbazh,Арбаж",3943,3.0,57.67949,48.3061,685.8
Ardatov,"Ardatov,Ardatovo,Ардатов,Ардатов",9400,3.0,54.8465544,46.2411232,554.84
Ardon,"AErydon,Ardon,Ardon i Nord-Ossetia,Ardona,Ardonas,Ardón,a er dong,aleudon,ardwn,ardwn  awstyay shmaly-alanya,arudon,Ærydon,Æрыдон,Ардон,Ардон балһсн,Ӕрыдон,Արդոն,آردون، اوستیای شمالی-آلانیا,أردون,اردون، جمہوریہ شمالی اوسیشیا-الانیا,アルドン,阿尔东,아르돈,Ардон",18774,3.0,43.1755152,44.2955775,1477.77
Ardon’,"Ardon,Ardon',Ardon’,Ардонь",2775,3.0,52.73524,32.30857,480.84
Argayash,"Argajash,Argayash,Аргаяш",10096,5.0,55.4888,60.8767,1453.96
Argudan,"Argudan,Cherex,Аргудан",8250,3.0,43.41602,43.91129,1443.4
Argun,"Argoen,Argoun,Argun,Argun i Tsjetsjenia,Argunas,Arguun,Argún,Kolkhoznoe,Kolkhoznoye,Kolxoznoe,Orga,Ustar-Gordoy,Ustrada-Gala,Ustrada-Ġala,a er gong,aleugun,arghn,arghuni,argwn,Аргун,Аргун балһсн,Аргъун,Колхозное,Орга,Устрада-ГӀала,آرگون,أرغن,ارگون، چیچن جمہوریہ,არღუნი,阿爾貢,아르군,Аргун",29528,3.0,43.2916774,45.8723105,1505.79
Arkadak,"Arkadag,Arkadak,Arkadakas,a er ka da ke,aleukadag,arkadak,Аркадаг,Аркадак,Аркадак балһсн,آرکاداک,أركاداك,ارکاداک,阿爾卡達克,아르카닥,Аркадак",14392,4.0,51.93261,43.49779,573.47
Arkhangelsk,Архангельск,348716,3.0,64.5394289,40.5169606,989.94
Arkhangel’sk,"ARH,Archangel,Archangelsk,Arhangeljsk,Arhankeli,Arkangeli,Arkhangel'sk,Arkhangelsk,Arkhangel’sk,Novo-Kholmogory,Novyye Kholmogory,Архангельск",349742,3.0,64.54717,40.55291,991.11
Arkhangel’skoye,"Arkhangel'skoe,Arkhangel'skoye,Arkhangelskoje,Arkhangel’skoye,Poselok Arkhangel'skoye,Posëlok Arkhangel’skoye,Архангельское",3600,3.0,55.78791,37.29984,20.14
Arkhara,"Archara,Arhara,Arjara,Arkhara,Arkharà,Arxara,a er ha la,arkara,arkhara,arkhara  rwsyh,aruhara,Архара,Արխարա,آرخارا,آرخارا، روسیه,أركارا,アルハラ,阿尔哈拉,阿爾哈拉",10430,9.0,49.42447,130.08569,5811.08
Arkhipo-Osipovka,"Arkhipo-Osipovka,Arkhipo-Osipovskaya,Arkhipo-Osipovskoye,Архипо-Осиповка",8170,3.0,44.37194,38.52972,1267.08
Arkhipovka,"Arkhipovka,Архиповка",1741,3.0,56.66292,41.25434,246.73
Arkhonskaya,"Arkhohskaya,Arkhonskaja,Arkhonskaya,Архонская",7991,3.0,43.11,44.5125,1489.82
Arkul’,"Arkul',Arkul’,Аркуль",2537,3.0,57.28085,50.044,779.96
Arman’,"Arman',Arman’,Армань",1411,11.0,59.66994,150.13164,5870.72
Armavir,"Aramir,Armavir,Armavir i Russland,Armavira,Armaviras,Armawir,a er ma wei er,aleumabileu,armafyr,armawyr,armawyr  rws,armawyr  rwsyh,arumavuiru,Армавир,Армавир балһсн,Армавір,آرماویر,آرماویر، روسیه,أرمافير,ارماویر، روس,アルマヴィル,阿爾馬維爾,아르마비르,Армавир",199548,3.0,44.9892,41.1234,1221.97
Armiansk,Армянск,21987,3.0,46.1059307,33.6910012,1106.87
Armizonskoye,"Armizonskoe,Armizonskoje,Armizonskoye,Армизонское",4711,5.0,55.94611,67.67361,1861.57
Aromashevo,"Aromashevo,Aromasjevo,Аромашево",5573,5.0,56.86018,68.63754,1901.1
Arsaki,"Arsaki,Арсаки",3059,3.0,56.38333,38.48333,88.46
Arsenyev,Арсеньев,56742,10.0,44.1622031,133.2696209,6402.62
Arsen’yev,"Arsen'ev,Arsen'yev,Arsenjev,Arsen’yev,Semenovka,Арсеньев",58700,10.0,44.15254,133.27791,6403.87
Arsen’yevo,"Aren'yevo,Aren’yevo,Arsen'evo,Arsen'yevo,Arsen’yevo,Арсеньево",4915,3.0,53.73794,36.66749,232.09
Arshan’,"Arshan',Arshan’,Arsjan,Prigorodnaya Arshan',Prigorodnaya Arshan’,Sadovyy,Аршань",3542,3.0,46.2732,44.22,1149.59
Arsk,"Arca,Archa,Ars'k,Arsk,Arça,a er si ke,aleuseukeu,arsk,arusuku,Арск,Арськ,Арча,آرسک,أرسك,ارسک,アルスク,阿爾斯克,아르스크,Арск",18114,3.0,56.0912567,49.877067,763.88
Arti,"Arti,arty,Арти,Әртә,Արտի,أرتي",13564,5.0,56.42344,58.53276,1294.78
Artybash,"Artybash,Artybasj,Артыбаш",1200,7.0,51.79278,87.27611,3221.62
Artyshta,"Artyshta,Artyshtinskaya,Артышта",3090,7.0,54.1222,86.2909,3050.21
Artëm,"Artem,Artiom,Artjom,Artyom,Artëm,Артем,Артём",102300,10.0,43.3595,132.18887,6411.78
Artëmovskiy,"Arcjomauski,Artemovsk,Artemovski,Artemovskij,Artemovskiy,Artjomovskij,Artyomovskiy,Artëmovskiy,Yegorshina,Yegorshino,Yegorshinskiye Kopi,Артемовский,Артёмовский,Арцёмаўскі",33700,5.0,57.3555,61.86865,1488.93
Arzamas,"Arsamas,Arsamassium,Arzamas,Arzamasas,Arzamass,Arzamasz,a er zha ma si,aleujamaseu,aruzamasu,arzamas,Арзамас,آرزاماس,أرزاماس,ارزاماس,アルザマス,阿爾扎馬斯,아르자마스,Арзамас",109479,3.0,55.39563,43.8381,393.04
Arzgir,"Arsgir,Arzgir,Арзгир",15838,3.0,45.37411,44.2198,1243.35
Ar’ya,"Ar'ja,Ar'ya,Ar’ya,Арья",4760,3.0,57.49146,45.96691,545.83
Asanovo,"Asanovo,Асаново",1764,5.0,54.89418,55.49083,1131.7
Asbest,"Asbest,Asbest i Russland,Asbestas,Asbiest,Asmpest,a si bie si te,asbst,asbyst,aseubeseuteu,asubesuto shi,Ασμπέστ,Асбест,Әсбест,אסבסט,آسبست,أسبيست,اسبست,اسبیست,アスベスト市,阿斯别斯特,아스베스트,Асбест",74583,5.0,57.00993,61.45776,1466.92
Asbestovskiy,"Asbestovskij,Asbestovskiy,Asbestovyy,Асбестовский",1209,5.0,57.75574,61.39672,1458.94
Asekeyevo,"Asekeevo,Asekejevo,Asekeyevo,Асекеево",5267,5.0,53.57425,52.79724,1003.72
Asha,"Asha,Аша,Аша",33006,5.0,54.9973,57.2722,1240.58
Ashil’ta,"Ashil'ta,Ashil’ta,Asjilta,Ашильта",1700,3.0,42.77042,46.72992,1584.67
Ashitkovo,"Ashitkovo,Asjitkovo,Ашитково",3285,3.0,55.45173,38.59518,70.02
Ashukino,"Ashchukino,Ashukino,Ashukinskiy,Ашукино",6310,3.0,56.16667,37.95,50.57
Asino,"Asina,Asinas,Asino,Assino,a xi nuo,ashino,asino,asynw,Асино,Асіна,Асіно,آسینو,أسينو,اسینو,アシノ,阿西诺,아시노,Асино",27070,7.0,56.99987,86.14393,2927.98
Askino,"Askin,Askino,Аскино",6866,5.0,56.09013,56.57831,1178.37
Askiz,"Askiz,Askysskoye,Askyzskoye,Аскиз",6928,7.0,53.13194,90.52639,3349.82
Assinovskaya,"A'khkinchu-Borze,Akh-Borze,Assinovskaja,Assinovskaya,Assinowskaja,Assinskaya,Ax-Borze,Axkincu-Borze,Ehkha-Borze,Exa-Borze,Äxkinçu-Borze,Ассиновская,Ах-Борзе,Аьхкинчу-Борзе,Эха-Борзе",10270,3.0,43.24167,45.18194,1492.47
Astrakhan,"ASF,Actarkhan,Ashhtehrkhuan,Ashttarkhan,Astarkhaan,Astiraxan,Astraca,Astracan,Astrachan,Astrachan',Astrachane,Astrachanum,Astrachanė,Astrachań,Astrachaň,Astrachán,Astracán,Astracã,Astrahan,Astrahana,Astrahano,Astrahaņa,Astrakan,Astrakhan,Astrakhan',Astrakán,Astraxan,Astraxon,Astraĥano,Asztrahan,Asztrahán,Həstərxan,Həştərxan,a si te la han,aseuteulahan,astrakhan,astrakhana,astʼrakhani,asutorahan,Àstrakhan,Əsterkhan,ʼstrhn,Άστραχαν,Аçтăрхан,Астархаан,Астрахан,Астрахань,Ашттархан,Ащтэрхъан,Әстерхан,Әәдрхн балһсн,Աստրախան,אסטרחן,آستراخان,أستراخان,استراخان,आस्त्राख़ान,आस्त्राखान,အကစထရာကနမြ,အက်စထရာကန်မြို့,ასტრახანი,アストラハン,阿斯特拉罕,아스트라한,Астрахань",533925,4.0,46.34968,48.04076,1271.45
Atagay,"Atagai,Atagaj,Atagay,a ta gai,ataghay  arkwtsk awblast,ataqay  rwsyh,Атагай,Ատագայ,آتاقای، روسیه,أتاغاي، إركوتسك أوبلاست,阿塔盖",1805,8.0,55.1033,99.3875,3766.72
Atamanovka,"Atamanovka,Atamanskaja,Atamanskaya,Атамановка,Атаманская",9053,9.0,51.93333,113.63333,4750.72
Atamanskaya,"Atamanskaja,Atamanskaya,Атаманская",3930,3.0,46.1773,39.6358,1073.92
Atemar,"Atemar,Атемар",4052,3.0,54.18097,45.40909,526.92
Ateptsevo,"Ageptsevo,Atepcevo,Ateptsevo,Ateptsovo,Атепцево",3424,3.0,55.32364,36.75002,72.37
Atig,"Acig,Atig,a ji ge,atygh,atyq  rwsyh,Атиг,Атіг,Аціг,Әтек,Ատիգ,آتیق، روسیه,أتيغ,阿季格",3842,5.0,56.69307,59.42271,1346.45
Atkarsk,"Atarsk,Atkar,Atkars'k,Atkarsk,Atkarska,Atkarskas,a te ka er si ke,askaleuseukeu,atkarsk,Аткар,Аткарск,Аткарск балһсн,Аткарськ,آتکارسک,أتكارسك,اتکارسک,阿特卡爾斯克,앗카르스크,Аткарск",27554,4.0,51.87185,45.00775,648.77
Atlashevo,"Atlashevo,Novoje Atlasjevo,Novoye Atlashevo,Атлашево",3515,3.0,56.01235,47.55615,620.12
Atlasovo,"Atlasovo,Атласово",5000,12.0,55.6065,159.64266,6571.82
Atyashevo,"Atjashevo,Atyashevo,Batushevo,Атяшево,Батушево",5935,3.0,54.56443,46.06905,552.64
Aushiger,"Aushiger,Ausjiger,Аушигер",4955,3.0,43.39312,43.7367,1442.03
Avdon,"Avdon,Авдон",4980,5.0,54.66667,55.71667,1151.42
Avsyunino,"Avsiunino,Avsjunino,Avsyunino,Авсюнино",5148,3.0,55.56516,39.12324,96.83
Avtopoligon,"Avtopoligon,Автополигон",1194,3.0,56.34984,37.32296,68.89
Avtovo,"Autuansaari,Avtoro,Avtovo,Avtovon metroasema,Awtowo,Derevnya Aftova,Estacao Avtovo,Estação Avtovo,Sosnovka,Stancyja metro Autava,Автово,Станцыя метро Аўтава,Ավտովո",44667,3.0,59.87167,30.26583,631.24
Avtury,"Avtara,Avturi,Avtury,Ehvtara,Evtara,Novosadovoe,Novosadovoye,Əvtara,Автуры,Новосадовое,Эвтара",18370,3.0,43.16345,46.00152,1522.79
Aya,"Aja,Aya,Ayskoye,Ая",2876,7.0,51.94532,85.80168,3123.91
Ayan,"Ajan,Ayan,Аян",1286,10.0,56.46314,138.17777,5648.83
Aykhal,"Aichal,Aichalas,Aihal,Aihala,Aihhal,Aikhal,Ajchal,Ajchał,Ajkhal,Ayhal,Aykhal,Ayxal,Aïkhal,ai ha er,aihal,aykhal,aykhal  rwsyh,Айхал,آیخال، روسیه,أيخال,艾哈尔,아이할",15267,9.0,65.93381,111.4834,3898.79
Aykino,"Ajkino,Aykino,Айкино",3358,3.0,62.22481,49.99222,1007.14
Aysha,"Ajsha,Ajsja,Aysha,Айша",3086,3.0,55.87035,48.63187,687.73
Ayutinskiy,"Ajutinskij,Aytinskiy,Ayutinskiy,Vlasovo-Ajuta,Vlasovo-Ayuta,Аютинский,Власово-Аюта",10623,3.0,47.78228,40.14763,903.02
Azanka,"Azanka,Азанка",3210,5.0,58.04012,64.78927,1658.11
Aznakayevo,Азнакаево,34859,3.0,54.8598642,53.0745527,981.37
Azov,"Asoff,Asovia,Asow,Azak,Azou,Azov,Azov - Azov,Azov - Азов,Azova,Azovas,Azow,ajopeu,azofu,azwf,ya su,Азак,Азов,Азов балһсн,Азоў,Ազով,אזוב,آزوف,ازوف,アゾフ,亞速,아조프,Азов",82882,3.0,47.1121589,39.4232555,968.78
Azovo,"Azovo,Azovskoye,Азово",5311,6.0,54.69972,73.02367,2224.07
Azovskaya,"Azovskaja,Azovskaya,Азовская",3960,3.0,44.79083,38.62639,1220.93
Babayevo,"Babaeva,Babaevo,Babaievo,Babajevo,Babajewo,Babayevo,Babaïevo,Babáyevo,babayfw,babayww,babyyfw,Бабаева,Бабаево,بابایفو,بابایوو,بابييفو,Бабаево",12300,3.0,59.3936,35.9371,417.05
Babayurt,"Babajurt,Babayurt,Бабаюрт",13857,3.0,43.59976,46.77805,1500.56
Babino,"Babino,Бабино",2456,3.0,56.22564,43.6238,377.26
Babstovo,"Babetova,Babetovskiy,Babetovskoye,Babstova,Babstovo,Babstovskoye,Babstvo,Babstwo,Babustowa,Babustōwa,Babusutowa,Babusutōwa,Бабстово",3685,10.0,48.11853,132.47913,6037.57
Babugent,"Babugent,Cherek,Бабугент",2893,3.0,43.27748,43.55056,1450.48
Babushkin,"Babushkin,Babusjkin,Losinoostrovskaya,Бабушкин,Бабушкин",86000,3.0,55.86931,37.72966,14.84
Babynino,"Babinino,Babynino,Poselok Babynino,Posëlok Babynino,Бабынино",4009,3.0,54.38898,35.74037,192.94
Bachatskiy,"Bachatskij,Bachatskiy,Бачатский",14618,7.0,54.2927,86.1285,3033.02
Bachi-Yurt,"BIachin-Jurt,B`acin-Yurt,Bachi-Jurt,Bachi-Yurt,Baci-Jurt,Batsji-Jurt,Bači-Jurt,Bwacin-Yurt,Bwaçin-Yurt,B‘açin-Yurt,Krasnoarmejskoe,Krasnoarmeyskoe,Krasnoarmeyskoye,Pervomajskoe,Pervomaysk,Pervomayskoe,Pervomayskoye,БІачин-Юрт,Бачи-Юрт,Красноармейское,Первомайское",14788,3.0,43.22417,46.19423,1521.95
Bada,"Bada,Бада",5149,9.0,51.391,109.86145,4575.41
Badar,"Badar,Bodarskoye,Бадар",1600,8.0,54.39948,100.59436,3871.78
Bagan,"Bagan,Karasinskiy,Баган",5803,7.0,54.10014,77.66462,2529.72
Bagayevskaya,"Bagaevskaja,Bagajevskaja,Bagajewskaja,Bagayevskaya,Bagayevskiy,Багаевская",15300,3.0,47.32411,40.38791,956.38
Bagdarin,"Bagdarin,Bogdarin,Багдарин",4676,8.0,54.43333,113.6,4588.39
Bagramovo,"Bagramovo,Баграмово",2174,3.0,54.72337,39.45186,163.21
Bagrationovsk,"Bagracijonausk,Bagratinovsk,Bagrationivs'k,Bagrationovsk,Bagrationovska,Bagrationovskas,Bagrationowsk,Bagratyionovszk,Baqrationovsk,Eylau,Preussisch Eylau,Preussisch-Eylau,Preußisch Eylau,Preysish Aylau,Preyss Aylau,Preyss-Eylau,Prusu Ylava,Prūsų Ylava,Stadt Preussisch Eylau,Stadt Preußisch Eylau,Ylava,ba ge la ji ao nuo fu si ke,bageulationobseukeu,baghrashynwfsk,bagrationovsk,bagratywnwwsk,bagratyywnwfsk,bagurationofusuku,Багратионовск,Багратіонівськ,Баграціёнаўск,باغراشينوفسك,باگراتیئونوفسک,باگراتیونووسک,バグラティオノフスク,巴格拉季奧諾夫斯克,바그라티오놉스크,Багратионовск",7306,2.0,54.38714,20.64372,1088.36
Bakal,"Bakal,Bakalas,ba ka er,bakal,Бакал,باكال,باکال,巴卡爾,바칼,Бакал",21762,5.0,54.9417,58.8083,1337.71
Bakaly,"Bakaly,Бакалы",9532,5.0,55.17889,53.80278,1020.04
Bakchar,"Bakchar,Baktsjar,Бакчар",7195,7.0,57.01861,82.07111,2691.62
Bakhchivandzhi,"Bahchivandzhi,Bakhchivandzhi,Shhelkovo-4,Shhjolkovo-4,Бахчиванджи,Щелково-4,Щёлково-4",2000,3.0,55.88333,38.08333,32.66
Bakhilovo,"Bakhilovo,Бахилово",1189,4.0,53.4011,49.636,816.39
Baklashi,"Akinino-Baklashi,Baklashi,Baklasji,Баклаши",3000,8.0,52.22509,104.03809,4191.65
Baksan,"Baksan,Baksanas,Baksanskie,Bakssan,Baskhan,Behkhusehn,ba ke sang,bagsan,baksan,Баксан,Баксан балһсн,Басхан,Бэхъсэн,باكسان,باکسان,巴克桑,박산,Баксан",37519,3.0,43.68374,43.53507,1406.55
Baksanenok,"Baksanenok,Kasayevo,Баксаненок",7058,3.0,43.68972,43.65472,1408.48
Baksheyevo,"Badsheyevo,Baksheevo,Baksheyevo,Бакшеево",2296,3.0,55.7086,39.87666,141.65
Balabanovo,"Balabanova,Balabanovo,Balabanowo,Balobanovo,Bałabanowo,ba la ba nuo wo,Балабаново,巴拉巴諾沃,Балабаново",26337,3.0,55.1773714,36.6566951,87.97
Balagansk,"Baiagansk,Balagansk,Balaganski,Балаганск",4195,8.0,54.0057,103.05234,4032.58
Balakhna,Балахна,51526,3.0,56.495036,43.5758423,378.41
Balakhninskiy,"Balakhninskij,Balakhninskiy,Балахнинский",1675,8.0,58.01056,114.27694,4409.76
Balakhonovskoye,"Balakhonovskoe,Balakhonovskoje,Balakhonovskoye,Bogoslavskaya,Bogoslovskoye,Балахоновское",4377,3.0,44.7767,41.7842,1255.3
Balakhta,"Balakhta,Балахта",7721,7.0,55.38425,91.61872,3308.26
Balakirevo,"Balakirevo,Parakirevo,Yasnaya Polyana,Балакирево",8932,3.0,56.50588,38.84324,113.18
Balakovo,"BWO,Balakova,Balakovas,Balakovo,Balakowo,Bałakowo,ba la ke wo,balakwfw,balakww,ballakobo,Балакова,Балаково,Балаково балһсн,بالاكوفو,بالاکوفو,بالاکوو,巴拉科沃,발라코보,Балаково",199576,4.0,52.0224231,47.7827765,783.7
Balasheyka,"Balashejka,Balasheyka,Balasjejka,Балашейка",3080,4.0,53.2841,48.0851,728.42
Balashikha,"Balachikha,Balaschicha,Balashikha,Balashikhae,Balashikhe,Balashykha,Balasicha,Balasiha,Balasihha,Balasixa,Balasjicha,Balasjikha,Balaszycha,Balaŝiĥa,Balaşiha,Balaşixa,Balašicha,Balašiha,Balašihha,Balașiha,Balishikha,Bałaszycha,ba la xi ha,balashyka,balashykha,ballasiha,barashiha,Балашихæ,Балашиха,Балашихе,Балашыха,بالاشيكا,بالاشیخا,バラシハ,巴拉希哈,발라시하,Балашиха",215353,3.0,55.796389,37.938283,20.77
Balashov,"Balachov,Balaschow,Balashou,Balashov,Balashovo,Balasjov,Balasov,Balasovas,Balaszow,Balaŝov,Balaşov,Balašov,Balašovas,Bałaszow,ba la shao fu,balashwf,Балашов,Балашоў,بالاشوف,巴拉紹夫,Балашов",98107,4.0,51.5502,43.1667,593.04
Baley,"Balei,Balej,Baley,Batey,Novo-Troitskiy Promysel,Nowo Troizkoje,Балей,Балей",13404,9.0,51.58166,116.63395,4938.97
Balezino,"Balesino,Balezino,balyzynw,Балезино,Балезіно,Բալեզինո,باليزينو",16618,4.0,57.9787,53.0138,965.73
Balgazyn,"Balgazik,Balgazin,Balgazun,Balgazyn,Балгазын",3342,7.0,51.0,95.2,3743.87
Baltasi,"Baltasi,Балтаси",7009,3.0,56.3462,50.2062,783.56
Baltay,"Baltaj,Baltay,Boltayevskaya,Балтай",3959,4.0,52.46525,46.63081,691.27
Baltiysk,"Baltiisk,Baltijsk,Baltijskas,Baltisk,Baltiysk,Baltyjsk,Bałtyjsk,Pilawa,Piliava,Pillau,baltiseukeu,Балтийск,발티스크,Балтийск",34540,2.0,54.65455,19.90929,1127.04
Balyaga,"Baljaga,Balyaga,Баляга",3559,9.0,51.15293,108.92767,4537.79
Bammatyurt,"Bamat-Yurt,Bammat-Jurt,Bammatjurt,Bammatyurt,Баммат-Юрт,Бамматюрт",3863,3.0,43.34576,46.60819,1521.53
Bamut,"Bamut,Bomut,Bukovka,Bummat,Bummate,Nizhniy Bamut,Бамут,Буковка,Буммат,Буммате",5148,3.0,43.15986,45.19734,1501.49
Baraba,"Baraba,Бараба",1153,5.0,56.75,61.76667,1488.26
Barabash,"Barabash,Barabasj,Барабаш",3603,10.0,43.19948,131.49185,6387.54
Barabinsk,"Baraba,Barabins'k,Barabinsk,Barabinskas,Barabińsk,Baràbinsk,ba la bin si ke,balabinseukeu,barabinsuku,barabynsk,Бараба,Барабинск,Барабінск,Барабінськ,بارابينسك,بارابینسک,バラビンスク,巴拉賓斯克,바라빈스크,Барабинск",31508,7.0,55.35709,78.35697,2525.59
Baranchinskiy,"Baranchins'kij,Baranchinski,Baranchinskij,Baranchinskiy,Baranczinskij,Barantschinski,Barantsjinskiy,barantshynskyy,Баранчински,Баранчинский,Баранчинський,Բարանչինսկիյ,بارانتشينسكيي",10970,5.0,58.1617,59.6991,1358.98
Barashevo,"Barashevo,Barasjevo,Барашево",3651,3.0,54.5325,42.87917,360.85
Barda,"Barda,Барда",8279,5.0,56.9287,55.5962,1112.57
Barguzin,"Barguzin,Баргузин",6052,8.0,53.61875,109.63904,4423.22
Barnaul,"BAX,Barnaoel,Barnaoul,Barnauel,Barnaul,Barnaul - Barnaul,Barnaul - Барнау́л,Barnaula,Barnaulas,Barnaulia,Barnauyl,Barnauł,Barnaúl,Barnaül,Mparnaoul,ba er nao er,baleunaul,barna'ula,barnal,barnawl,barnaywl,barunauru,Μπαρναούλ,Барнаул,Барнауыл,Բարնաուլ,ברנאול,بارنائول,بارنال,بارناول,बर्नाउल,バルナウル,巴尔瑙尔,바르나울,Барнаул",635585,7.0,53.3479968,83.7798064,2933.61
Barsovo,"Barsovo,Барсово",5710,5.0,61.25276,73.18824,2125.1
Barsuki,"Barsuki,Барсуки",3500,3.0,54.26548,37.48746,165.52
Barsukovskaya,"Barsukovskaja,Barsukovskaya,Барсуковская",5529,3.0,44.7632,41.8191,1257.34
Barvikha,"Barvikha,Барвиха",4193,3.0,55.74212,37.27926,21.08
Baryatino,"Bariatino,Barjatino,Baryatino,Baryatinskaya,Baryatinskoye,Барятино",2645,3.0,54.31106,34.52131,254.05
Barybino,"Barybino,Boribino,Барыбино",5000,3.0,55.26768,37.89333,56.65
Barysh,"Baris,Barish,Barix,Bariŝ,Barych,Barys,Barysas,Barysch,Barysh,Barysh osh,Barysj,Baryš,Baryšas,Barış,ba lei shen,balisi,barysh,Бариш,Барыш,Барыш ош,باريش,باریش,巴雷什,바리시,Барыш",18547,4.0,53.65533,47.11229,652.53
Baryshevo,"Barysheva,Baryshevo,Barysjevo,Барышево",5024,7.0,54.9564,83.1822,2829.54
Barzas,"Barzas,Барзас",2230,7.0,55.72912,86.32233,2985.1
Bashmakovo,"Bachmakovo,Baixmakovo,Baschmakowo,Bashmakova,Bashmakovo,Basmakovo,Baszmakowo,Başmakovo,Bašmakovo,ba shen ma ke wo_,bashmakwfw  bynza,bashmakwww  rwsyh,Башмакова,Башмаково,Բաշմակովո,باشماكوفو، بينزا,باشماکووو، روسیه,巴什马科沃_",9654,3.0,53.21329,43.0342,449.48
Bastan,"Bastan,Бастан",1100,7.0,51.85889,79.47444,2739.17
Batagay,"BQJ,Baatagaj,Bagataj,Batagai,Batagaj,Batagajus,Batagay,ba ta gai,batagai,batagay,bataghay,bataqay  rwsyh,Баатаҕай,Батагай,Батагај,باتاغاي,باتاقای، روسیه,باتاگای,バタガイ,巴塔蓋",4266,10.0,67.65653,134.63962,4715.3
Batagay-Alyta,"Alytay-Bataga,Batagai-Alyta,Batagaj-Alyta,Batagay-Alyta,SUK,Sakkyryr,Батагай-Алыта,Саккырыр",1666,9.0,67.79846,130.40119,4556.25
Bataysk,"Bataisk,Batajsk,Bataysk,Gorodovikovsk,Батайск,Батайск",112400,3.0,47.1383299,39.7507179,969.06
Batetskiy,"Bateckij,Batetskij,Batetskiy,Батетский,Батецкий",2223,3.0,58.6462,30.30292,545.03
Baturinskaya,"Baturinskaja,Baturinskaya,Батуринская",3678,3.0,45.79267,39.37065,1114.21
Batyrevo,"Batyrevo,Батырево",5648,3.0,55.0675,47.61111,634.99
Bavleny,"Bavieni,Bavleny,Бавлены",3209,3.0,56.39448,39.56504,140.49
Bavly,"Bauly,Bavly,Бавлы,Баулы,Бавлы",22982,3.0,54.39304,53.26023,1005.17
Bavtugay,"Babtugai,Bartugay,Bautugaj,Bavtugaj,Bavtugay,Bawtugai,Bawtugaj,ba fu tu gai,baftwghay,baftwjay,bawtwqay,Бавтугай,Баўтугай,Բավտուգայ,بافتوجاى,بافتوغاي,باوتوقای,巴夫圖蓋",5398,3.0,43.16808,46.83415,1546.69
Bay-Khaak,"Baj-Khaak,Baj-Khak,Bay-Khaak,Bay-Khak,Baygak,Бай-Хаак,Бай-Хак",3058,7.0,51.16105,94.46371,3690.53
Bayanday,"Baindai,Bainday,Bajandaj,Bayanday,Баяндай",2854,8.0,53.06611,105.51389,4225.82
Bayangol,"Bajangol,Bayangol,Баянгол",1432,8.0,50.6977,103.4656,4251.48
Bayevo,"Baevo,Bajevo,Bayevo,Баево",5134,7.0,53.27065,80.77921,2754.4
Baykalovo,"Bajkalovo,Baykalovo,Байкалово",6043,5.0,57.39811,63.76841,1602.21
Baykalsk,Байкальск,13589,8.0,51.5230393,104.1487532,4240.41
Baykal’sk,"Bajkal'sk,Bajkalsk,Baykal'sk,Baykal’sk,Байкальск",15600,8.0,51.515,104.1402,4240.41
Baykit,"BKA,Baikit,Bajkit,Baykit,Байкит",3748,7.0,61.67694,96.37917,3334.71
Baymak,"Bajmak,Baymak,Baymak-Tanalykovo,Баймак,Баймак",17710,5.0,52.5912896,58.3110998,1386.36
Bayunovskiye Klyuchi,"Bajunovo,Bajunovskie Kljuchi,Bayunovo,Bayunovo-Klyuchi,Bayunovskiye Klyuchi,Баюново,Баюновские Ключи",1500,7.0,53.32806,84.18222,2958.91
Bazarnyy Karabulak,"Basarny Karabulak,Bazarni Karaboulak,Bazarni Karabulak,Bazarnij Karabulak,Bazarniy Karaboelak,Bazarniy Karabulak,Bazarny Karabulak,Bazarnyj Karabulak,Bazarnyy Karabulak,Bazarnıy Karabulak,ba zha er nei ka la bu la ke,bazarny karabwlak,bazarnyy karabwlak,Базарни Карабулак,Базарний Карабулак,Базарны Карабулак,Базарный Карабулак,Բազարնիյ Կարաբուլակ,بازارنيي كارابولاك,بازارنی کارابولاک,巴扎尔内卡拉布拉克",10389,4.0,52.26833,46.41444,692.48
Bazarnyy Syzgan,"Bazarny Syzgan,Bazarnyj Syzgan,Bazarnyy Syzgan,Базарный Сызган",6039,4.0,53.75117,46.75354,626.62
Bazarnyye Mataki,"Bazarnye Mataki,Bazarnyye Mataki,Bazarnyye Matani,Базарные Матаки",5339,3.0,54.88333,49.93333,784.28
Bazhovo,"Bazhovo,Bazjovo,Imeni Bazhova,Бажово",11537,5.0,55.05955,61.60445,1508.84
Bedeyeva Polyana,"Bedeeva Poljana,Bedeeva-Poljana,Bedeyeva Polyana,Бедеева Поляна,Бедеева-Поляна",1757,5.0,55.32345,56.38882,1178.58
Begichevskiy,"Begichevskij,Begichevskiy,Begitsjevskij,Бегичевский",2616,3.0,53.79605,38.25498,221.35
Begunitsy,"Begunicy,Begunitsy,Pekunitsa,Бегуницы",3558,3.0,59.58552,29.31757,651.24
Bekeshevskaya,"Bekeshevskaja,Bekeshevskaya,Bekesjevskaja,Бекешевская",3800,3.0,44.11389,42.42694,1338.34
Bekhteyevka,"Bekhteevka,Bekhtejevka,Bekhteyevka,Бехтеевка",3332,3.0,50.80706,37.21789,550.51
Bekovo,"Bekovo,Беково,Բեկովո",6800,3.0,52.46632,43.71199,539.48
Belaya,"Belaja,Belaya,Beloye,Белая",2810,3.0,51.05878,35.71088,536.89
Belaya Berëzka,"Belaja Berjozka,Belaja-Berezka,Belaya Berezka,Belaya Berëzka,Belyye Berezki,Белая Берёзка,Белая-Березка",0,3.0,52.38481,33.4823,461.28
Belaya Glina,"Belaja Glina,Belaya Glina,Glina,Белая Глина",17997,3.0,46.07802,40.86651,1099.28
Belaya Gora,"BGN,Belaja Gora,Belaya Gora,Белая Гора",2383,11.0,68.53805,146.18583,5034.22
Belaya Kalitva,"Belaia Kalitva,Belaja Kalitva,Belaja Kalitwa,Belaya Kalitva,Belaïa Kalitva,Belokalitvenskaya,Bielaja Kalitwa,Biełaja Kalitwa,Bila Kalitva,Bjelaja Kalitwa,Byelaya Kalitva,Bélaya Kalitvá,Ust'-Belokalitvenskaya,Ust’-Belokalitvenskaya,bai ka li te wa,bellayakalliteuba,blaya kalytfa,bylaya kalytfa,Белая Калитва,Белая Калитва балһсн,Белая Калітва,Белаја Калитва,Біла Калитва,Բելայա Կալիտվա,بلایا کالیتفا,بيلايا كاليتفا,白卡利特瓦,벨라야칼리트바,Белая Калитва",47521,3.0,48.18585,40.77424,868.49
Belaya Kholunitsa,"Belaia Kholounitsa,Belaja Cholunica,Belaja Choluniza,Belaja Holunica,Belaja Holunitsa,Belaja Holunyica,Belaja Khalunica,Belaja Kholunica,Belaja Kholunitsa,Belaja Ĥolunica,Belaya Kholunitsa,Belaya Xolunitsa,Belaïa Kholounitsa,Belokholunitskiy,Belokholunitskiy Zavod,Belokolunitskiy,Bielaja Cholunica,Biełaja Chołunica,Bila Kholunicja,Bjelaja Cholunica,Byelokhohmitski Zavod,Osh Kholunice,bai huo lu ni cha,bellayahollunicha,blaya khwlwnytsa,bylaya khwlwnytsa,Белая Халуніца,Белая Холуница,Белаја Холуница,Біла Холуниця,Ош Холунице,Բելայա Խոլունիցա,بلایا خولونیتسا,بيلايا خولونيتسا,白霍盧尼察,벨라야홀루니차,Белая Холуница",11658,3.0,58.84031,50.83887,863.59
Belaya Rechka,"Belaja Rechka,Belaja Retsjka,Belaya Rechka,Белая Речка",3424,3.0,43.43806,43.535,1432.91
Belebey,"Belebei,Belebej,Belebey,Belebeï,Belebéi,Beljabej,Bielebiej,Pelepej,bie lie bie yi,blby,bylyby,bylybyy,Белебей,Белебеј,Белябей,Бәләбәй,Пелепей,بلبی,بيليبي,بیلیبیئ,別列別伊,Белебей",62582,5.0,54.11667,54.11667,1067.05
Belgatoy,"Belgatay,Belgatoj,Belgatoy,Belgazoi,Kurgannoe,Kurgannoye,Белгатой,Курганное",3254,3.0,43.18995,45.83082,1515.26
Belgorod,"Belgarad,Belgorod,Belgorod shaary,Belgoroda,Belgorodas,Belgorodo,Belnkoront,Belqorod,Bielgorod,Bielogroda,Biełgorod,Bilhorod-Dnistrovskyi,Bjelgorod,Bélgorod,Bělgorod,EGO,belgolodeu,belgoroda,berugorodo,bie er ge luo de,blgwrwd,bylghwrwd,Μπέλγκοροντ,Белгарад,Белгород,Белгород балһсн,Белгород шаары,Бєлгород,Բելգորոդ,בלגורוד,بلگورود,بيلغورود,بیلگوروڈ,बेल्गोरोद,ベルゴロド,别尔哥罗德,벨고로드,Белгород",356426,3.0,50.5976472,36.5856652,577.24
Belidzhi,"Belidzhi,Белиджи",16078,3.0,41.89184,48.41247,1727.43
Belinskiy,"Belinski,Belinskij,Belinskij balһsn,Belinskis,Belinskiy,Belinskoj osh,Belinsky,Bielinski,Bjalinski,Bjelinskij,Bělinskij,Chembar,bie lin si ji,blynskyy,Белински,Белинский,Белинский балһсн,Белинской ош,Бялінскі,بلینسکیی,別林斯基",8800,3.0,52.96474,43.41647,486.91
Belinsky,Белинский,8567,3.0,52.9640996,43.4183212,487.05
Belogorsk,"Aleksandrovka,Aleksandrovsk,Belagorsk,Beletorsk,Belogors'k,Belogorsk,Belogorsk i Amur oblast,Belogorskas,Beloqorsk,Bielogorsk,Biełogorsk,Kuibyshevka,Kuybyshevka,Kuybyshevka-Vostochnaya,Svobodnyy-18,bellogoleuseukeu,berogorusuku,bie luo ge er si ke,blwgwrsk  astan amwr,bylwghwrsk,bylwgwrsk,bylwgwrsk  amwr awblast,Белагорск,Белогорск,Бєлогорськ,بلوگورسک، استان آمور,بيلوغورسك,بیلوگورسک,بیلوگورسک، آمور اوبلاست,ベロゴルスク,别洛戈尔斯克,벨로고르스크,Белогорск",68220,9.0,50.9213415,128.4739471,5612.95
Belogor’ye,"Belogor'e,Belogor'ye,Belogorje,Belogor’ye,Byelogore,Белогорье",2171,3.0,50.4904,40.0095,606.41
Belokurikha,"Belakurykha,Belokourikha,Belokuricha,Belokurih,Belokuriha,Belokurija,Belokurikha,Belokuriĥa,Belokúrija,Belokúrikha,Bielokuricha,Biełokuricha,Novaya Belokurikha,Novobelokurikha,bellokuliha,bie luo ku li ha,blwkwrykha,bylwkwrykha,Белакурыха,Белокуриха,بلوکوریخا,بيلوكوريخا,بیلوکوریخا,別洛庫里哈,벨로쿠리하,Белокуриха",15072,7.0,51.996152,84.9839604,3071.4
Belomorsk,"Belamorsk,Belomors'k,Belomorsk,Belomorskas,Belomorsku,Bielomorsk,Biełomorsk,Bjelomorsk,Byelomorsk,Solunin,Soroka,Sorokhan,Soroki,Sorokka,Suomua,bai hai cheng,bellomoleuseukeu,beromorusuku,blwmwrsk,bylwmwrsk,Šuomua,Беламорск,Беломорск,Бєломорськ,بلومورسک,بيلومورسك,بیلومورسک,ベロモルスク,白海城,벨로모르스크,Беломорск",12165,3.0,64.53,34.76292,988.49
Beloomut,"Beloomut,Beloomutovo,Bjeloomut,Nizhniy Beloomut,Verkhniy Beloomut,bie luo ao mu te,blwmwt  rwsyh,bylwwmwt,Белоомут,Բելոոմուտ,بلوموت، روسیه,بيلووموت,别洛奥穆特",6971,3.0,54.94478,39.33941,141.2
Beloostrov,"Belavostrau,Beloostrov,Belostrovas,Novyy Krasnoostrov,Valkeasaari,Valkiesuari,Valkiešuari,bei er lu si te luo wei,beroosutorofu,Белавостраў,Белоостров,Бєлоостров,ბელოოსტროვი,ベロオストロフ,貝爾盧斯特羅維",2080,3.0,60.15118,30.00151,663.34
Beloozyorskiy,"Beloosjorski,Beloozerskij,Beloozerskiy,Beloozjorskij,Beloozyorsky,Beloozërskij,Beloozërskiy,Bielooziorskij,Biełooziorskij,Белоозерский,Белоозёрский",18297,3.0,55.45978,38.44358,61.34
Belorechensk,"Belarehchansk,Belorecensk,Belorecenskas,Belorechens'k,Belorechensk,Belorechenskaya,Beloretchensk,Beloretschensk,Beloretschenskaja,Beloretsjensk,Beloretxensk,Beloreçensk,Beloreĉensk,Belorečensk,Belorečenskas,Beloréchensk,Belorétxensk,Bieloriecziensk,Biełorieczieńsk,bie luo lie qin si ke,blwrchnsk  krasnwdar,bylwrychynsk,bylwrytshynsk,Беларэчанск,Белореченск,Бєлорєченськ,بلورچنسک، کراسنودار,بيلوريتشينسك,بیلوریچینسک,別洛列琴斯克,Белореченск",54526,3.0,44.77127,39.87879,1231.41
Beloretsk,"BCX,Belarehck,Belorec'k,Beloreck,Beloreckas,Beloret,Beloretk,Beloretsk,Beloretskiy Zavod,Belorezk,Belorețk,Bielorieck,Biełorieck,Bjelorjeck,bellolecheukeu,bie luo lie ci ke,blwrtsk,bylwrtsk,bylwrytsk,Беларэцк,Белорет,Белорецк,Белорецк балһсн,Бєлорєцьк,بلورتسک,بيلوريتسك,بیلورتسک,بیلوریتسک,別洛列茨克,벨로레츠크,Белорецк",70468,5.0,53.96306,58.39806,1339.76
Belousovo,"Belousovo,Белоусово,Белоусово",8432,3.0,55.0956803,36.677629,93.98
Belovo,"Belova,Belovas,Belovo,Belovo i Russland,Belowo,Bielowo,Biełowo,Bjalova,bellobo,bie luo wo,blwfw  rwsyh,bylwfw,bylwww,Белово,Бялова,Бєлово,بلوفو، روسیه,بيلوفو,بیلووو,別洛沃,벨로보,Белово",76752,7.0,54.4220968,86.3037373,3037.85
Beloyarsk,"Belojarsk,Beloyarsk,Beloyarskoye,Белоярск",10733,7.0,53.4461,83.9048,2936.76
Beloyarskiy,"Belojarskij,Beloyarskiy,EYK,Белоярский",20087,5.0,63.71194,66.67222,1830.76
Beloyarsky,Белоярский,20283,5.0,63.7121099,66.6772226,1831.0
Beloye,"Beloe,Beloje,Beloye,Beloyy,Белое",3067,3.0,45.04832,39.65143,1198.8
Belozersk,Белозерск,9614,3.0,60.0308381,37.7890586,475.87
Belozërnyy,"Belozernyj,Belozernyy,Belozjornyj,Belozërnyy,Белозерный,Белозёрный",4315,3.0,45.06748,38.72527,1190.65
Belozërsk,"Belosersk,Belozersk,Belozersko,Belozjorsk,Belozërsk,bellojeleuseukeu,Белозерск,Белозёрск,Белозјорск,벨로제르스크",11049,3.0,60.0288,37.8084,475.67
Belozërskoye,"Belozerskoe,Belozerskoye,Belozjorskoe,Belozërskoye,Белозерское,Белозёрское",4364,5.0,55.82139,65.58417,1736.73
Belush’ya Guba,"Belush'ja Guba,Belush'ya,Belush'ya Guba,Belushye,Belush’ya,Belush’ya Guba,Belusja Guba,Faktoriya Belush'ya Guba,Faktoriya Belush’ya Guba,Stanovishche Belush'ya,Stanovishche Belush'ya Guba,Stanovishche Belush'ye,Stanovishche Belush’ya,Stanovishche Belush’ya Guba,Stanovishche Belush’ye,Stoybishche Belush'ya,Stoybishche Belush’ya,Белушья Губа",0,3.0,71.54048,52.33338,1887.65
Bely,Белый,3771,3.0,55.8339056,32.9389741,292.43
Belyashi,"Beljashi,Beljasji,Belyashi,Беляши",1200,7.0,49.709,87.423,3344.08
Belyayevka,"Beljaevka,Belyayevka,Belyayevskiy,Беляевка",5110,5.0,51.39742,56.41667,1327.26
Belyy,"Beloi,Bely,Belyj,Belyy,Byeloi,Белый",4189,3.0,55.84082,32.94072,292.32
Belyy Gorodok,"Belyj Gorodok,Belyj-Gorodok,Belyy Gorodok,Gorodok,Белый Городок,Белый-Городок",2735,3.0,56.965,37.5125,135.0
Belyy Yar,"Belyj Jar,Belyy Yar,Naryl Koye,Narylkov,Белый Яр",8951,7.0,53.60389,91.39028,3377.89
Belyye Berega,"Belye Berega,Belyye Berega,Белые Берега",10425,3.0,53.20851,34.66405,341.05
Belyye Stolby,"Belye Stolby,Belyye Stolby,Белые Столбы",5563,3.0,55.33136,37.854,49.14
Belëv,"Belev,Beljov,Belve,Belëv,Белёв",15300,3.0,53.81217,36.13339,235.72
Benoy-Yurt,"Bena-Jurt,Bena-Yurt,Beno-Jurt,Beno-Yurt,Benoj-Jurt,Benoy-Yurt,Ozernoe,Ozernoye,Ozjornoe,Ozërnoe,Ozërnoye,Бена-Юрт,Бено-Юрт,Беной-Юрт,Озёрное",5642,3.0,43.69305,45.05025,1441.52
Berdigestyakh,"Berdigestjakh,Berdigestyakh,Berdigistyakh,Berdigyastyakh,Бердигестях",5948,9.0,62.09842,126.69573,4749.59
Berdsk,"Berds'k,Berdsk,Berdskas,Berdskoye,Bierdsk,Bjerdsk,Bordsk,beleucheukeu,bie er ci ke,brdsk,byrdsk,Бердск,Бердськ,بردسک,بيردسك,بیردسک,別爾茨克,베르츠크,Бердск",98809,7.0,54.7582156,83.1070605,2832.91
Berdyaush,"Berdjausch,Berdjaush,Berdyaush,Бердяуш",5631,5.0,55.1619,59.1464,1353.63
Beregovoy,"Beregovoj,Beregovoy,Kharina,Kharino,Береговой",7961,6.0,55.17301,73.21984,2220.68
Berendeyevo,"Berendeevo,Berendeyevo,Berendyeevo,Берендеево",1676,3.0,56.60078,39.02173,128.36
Bereslavka,"Bereslavka,Bereslavskiy,Береславка",4817,3.0,48.62541,44.04491,904.7
Berezanskaya,"Berezanskaja,Berezanskaya,Березанская",6568,3.0,45.70562,39.59324,1125.65
Berezayka,"Berezajaka,Berezajka,Berezayka,Березайка",2432,3.0,57.98833,33.90361,335.63
Berezniki,"Beresniki,Bereznikai,Berezniki,Bereznikí,Bereznyiki,Berezņiki,Bieriezniki,Bjarehzniki,Bjerezniki,Kydzzakar,Usol'ye-Solikamskoye,Usol’ye-Solikamskoye,belejeuniki,berezuniki,bie lie ci ni ji,bryznyky,brznyky,byryznyky,Березники,Березњики,Бярэзнікі,Кыдззакар,برزنیکی,بریزنیکی,بيريزنيكي,ベレズニキ,别列兹尼基,베레즈니키,Березники",167748,5.0,59.4091,56.8204,1209.77
Bereznyaki,"Berezniki,Bereznjaki,Bereznyaki,Березняки",1149,8.0,56.9366,103.5851,3906.97
Berezovsky,Березовский,51583,5.0,56.9095924,60.8180907,1429.17
Beringovskiy,"Beringovskij,Beringovskiy,Bukhta Ugol' Naya,Bukhta Ugol’ Naya,Ugol'naya,Ugol'nyy,Ugolnoe,Ugol’naya,Ugol’nyy,Беринговский",1861,12.0,63.06101,179.35046,6397.99
Berkakit,"Berhakit,Berkakit,Berkakitas,Berkokit,Bierkakit,berukakito,bie er ka ji te,brkakyt  rwsyh,Беркакит,Беркакіт,Բերկակիտ,برکاکیت، روسیه,ベルカキト,别尔卡基特",4764,9.0,56.57456,124.77635,5020.49
Bernovo,"Bernovo,Берново",1253,3.0,56.68633,34.70357,207.83
Bershet’,"Bershet',Bershet’,Bersjet,Бершеть",3489,5.0,57.7309,56.3783,1161.17
Beryozovsky,"Berjozovskij,Beryozovsky,Берёзовский",47000,5.0,56.9083,60.8019,1428.2
Berëza,"Bereza,Berjoza,Berëza,Береза,Берёза",5846,4.0,53.51833,50.13967,842.07
Berëznik,"Beresnik,Bereznik,Berjoznik,Berëznik,Dvinskoj Bereznik,Dvinskoy Bereznik,Semenovskaya,Semenovskoye,Semënovskoye,Берёзник,Двинской Березник",6218,3.0,62.85809,42.7019,840.6
Berëzovka,"Berejovskij,Bereyovski,Berezovka,Berezovskiy,Berezovskoi,Berezovskoye,Berjozovka,Berëzovka,Berëzovskiy,Berëzovskoi,Berëzovskoye,Березовка,Берёзовка",20913,7.0,56.03044,93.11164,3365.84
Berëzovo,"Berezov,Berezovo,Berjozovo,Beryozovo,Berëzovo,EZV,Sugmut-Vozh,Берёзово",7034,5.0,63.93806,65.04194,1761.47
Berëzovskiy,"Berezovskij,Berezovskiy,Berjozovskij,Berëzovskiy,Березовский,Берёзовский",55000,7.0,55.6,86.2,2982.99
Berëzovyy,"Berezovyj,Berezovyy,Berjozovyj,Berëzovyy,Veli,Берёзовый",5633,10.0,51.66897,135.66584,5911.39
Beshpagir,"Beshpagin,Beshpagir,Besjpagir,Бешпагир",4183,3.0,45.02167,42.38083,1239.35
Beslan,"Belsan,Beslaen,Beslan,Beslán,Beslæn,Bieslan,Biesłan,beseullan,beslani,besuran,Беслæн,Беслан,בסלאן,ბესლანი,ベスラン,베슬란,Беслан",36724,3.0,43.1937529,44.5338707,1481.43
Besleney,"Beslenej,Besleney,Besleny,Бесленей",3189,3.0,44.2405,41.7387,1312.94
Besleneyevskaya,"Besleneevskaja,Beslenejevskaja,Besleneyevskaya,Beslineyevskaya,Бесленеевская",1413,3.0,44.231,40.725,1299.9
Besskorbnaya,"Besskorbnaja,Besskorbnaya,Bezskorbnaya,Бесскорбная",5837,3.0,44.6447,41.311,1262.34
Bessonovka,"Bessonovka,Бессоновка",9880,3.0,53.30968,45.04069,550.31
Betlitsa,"Betlica,Betlitsa,Бетлица",3825,3.0,54.01322,33.94763,303.97
Beya,"Beja,Beya,Бея",5338,7.0,53.05333,90.91389,3376.86
Bezenchuk,"Besentschuk,Bezenchuk,Bezencsuk,Bezencuk,Bezentsjoek,Bezençuk,Bezjanchuk,Biezienczuk,Borodinskiy,Byrodinskiy,Pecen,bie jin qiu ke,byzyntshwk,bznchwk  rwsyh,Безенчук,Безянчук,Пĕçен,بزنچوک، روسیه,بيزينتشوك,别津丘克",23736,4.0,52.982,49.4333,823.91
Bezhanitsy,"Bezanicy,Bezanitso,Bezanitsy,Bezhanicy,Bezhanitsy,Bezjanitsy,Bežanicy,Bežanitsy,Bežanitsõ,Бежаницы",4711,3.0,56.97534,29.88492,494.89
Bezhetsk,"Bejeck,Bejetk,Bejetsk,Bejețk,Beschezk,Beshezk,Bezeck,Bezeckas,Bezetsk,Bezhack,Bezhec'k,Bezheck,Bezhetsk,Bezjetsk,Beĵeck,Bežeck,Bežeckas,Bežetsk,Biezeck,Bieżeck,bejecheukeu,bejetsuku,bie re ci ke,byjytsk,bzhtsk,Бежацк,Бежетск,Бежецк,Бежецьк,بيجيتسك,بژتسک,ベジェツク,別熱茨克,베제츠크,Бежецк",28114,3.0,57.78422,36.70082,232.72
Bezhta,"Bezhita,Bezhta,Bezjta,Бежта",3994,3.0,42.1338,46.12828,1634.07
Bezopasnoye,"Bezopasnoe,Bezopasnoje,Bezopasnoye,Безопасное",7176,3.0,45.64833,41.93603,1163.4
Bibirevo,"Bibirevo,Бибирево",159000,3.0,55.88333,37.6,14.61
Bichura,"Bichura,Bichurskoye,Bitsjura,Бичура",9559,8.0,50.58806,107.60222,4498.32
Bikin,"Bikin,Bikinas,Bikine,Bikín,bi jin,bikin,bykyn,Бикин,Бікін,بيكين,بیکین,ビキン,比金,비킨,Бикин",19659,10.0,46.81293,134.25012,6234.52
Bilibino,"Bilibina,Bilibinas,Bilibino,Bilíbino,bi li bi nuo,billibino,bylybynw,Билибино,Білібіна,Білібіно,بيليبينو,بیلیبینو,比利比诺,빌리비노,Билибино",5757,12.0,68.05464,166.43721,5625.35
Bilimbay,"Bilimbaj,Bilimbay,bylymbay,Билимбай,بيليمباي",5875,5.0,56.96889,59.8149,1368.0
Bilyarsk,"Biljarsk,Bilyarsk,Билярск",2179,3.0,54.98358,50.38671,810.39
Biorki,"Biorki,Биорки",1524,3.0,55.0528,38.60873,99.9
Bira,"Bira,Birskij,Birskiye,bi la_,bira ding,byra  jyfryj,byrh,Бира,Бирский,Біра,Բիրա,בירה,بيرا، جيفريج,ビラ町,比拉_",4176,10.0,49.00135,132.46826,5966.27
Birakan,"Birakan,Birokan,Биракан",2463,10.0,48.99302,131.72026,5928.84
Birobidzhan,"Birabidzhan,Birobican,Birobidjan,Birobidschan,Birobidshansk,Birobidzan,Birobidzana,Birobidzanas,Birobidzhan,Birobidzhán,Birobidzjan,Birobidzsan,Birobidżan,Birobidžan,Birobidžana,Birobidžanas,Birobigano,Birobijan,Birobiĝano,Bîrobîcan,Tikhon'kaya Stantsiya,Tikhon’kaya Stantsiya,Tikhou'kaya Stantsiya,Tikhou’kaya Stantsiya,bi luo bi zhan,bilobijan,birobijan,byrwbygn,byrwbyjan,Биробиджан,Биробиџан,Бірабіджан,Біробіджан,ביראבידזשאן,בירוביגן,بيروبيجان,بیروبیجان,ビロビジャン,比罗比詹,비로비잔,Биробиджан",75419,10.0,48.7946446,132.9217207,6005.83
Birsk,"Birs'k,Birsk,Birskas,Birszk,Boere,Böre,Puro,bi er si ke,bileuseukeu,byrsk,Бирск,Бирск балһсн,Бірск,Бірськ,Бөре,Бөрө,Пӱрӧ,بيرسك,بیرسک,比爾斯克,비르스크,Бирск",41637,5.0,55.4155753,55.5582214,1125.11
Biryuch,Бирюч,7842,3.0,50.6484585,38.4005083,569.91
Biryulëvo,"Birjuljovo,Biryulevo,Biryulëvo,Бирюлёво",144000,3.0,55.58635,37.67781,18.85
Biryulëvo Zapadnoye,"Biryulevo Zapadnoye,Biryulëvo Zapadnoye,Krasny Stroitel',Krasny Stroitel’,Krasnyj Stroitel',Krasnyy Stroitel',Krasnyy Stroitel’,Красный Строитель",89000,3.0,55.58766,37.64282,18.38
Biryusinsk,"Birjusinsk,Biryusinsk,Suyetikha,Бирюсинск,Бирюсинск",9583,8.0,55.9634,97.8235,3636.16
Bisert’,"Bisert,Bisert',Bisertskiy Zavod,Bisert’,Бисерть",11077,5.0,56.86174,59.05231,1322.57
Biskamzha,"Biskamzha,Biskamzja,Бискамжа",1961,7.0,53.44972,89.52722,3274.63
Biysk,"Biejsk,Biisk,Bijs'k,Bijsk,Biscum,Bisk,Biysk,Biyusk,Mpisk,Viysk,bi si ke,biseukeu,Μπισκ,Бийск,Бійськ,比斯克,비스크,Бийск",215430,7.0,52.53639,85.20722,3058.39
Bizhbulyak,"Bizhbuljak,Bizhbulyak,Bizjbuljak,Бижбуляк",6385,5.0,53.6967,54.2642,1090.42
Blagodarny,Благодарный,32736,3.0,45.0989782,43.4306455,1253.08
Blagodarnyy,"Blagodarnoe,Blagodarnoje,Blagodarnoye,Blagodarnyj,Blagodarnyy,Blagodatnoye,Благодарный",35995,3.0,45.09778,43.43639,1253.34
Blagodatnoye,"Berestovka,Blagodatnoe,Blagodatnoje,Blagodatnoye,Благодатное",5230,3.0,45.39972,42.58667,1202.7
Blagoveshchenka,"Blagaveshchanka,Blagovechtchenka,Blagovescenka,Blagovescsenka,Blagoveshchenka,Blagoveshhenka,Blagovesjtjenka,Blagovesjtsjenka,Blagoveşçenka,Blagoveščenka,Blagovishhenka,Blagoweschtschenka,Blagowieszczenka,Błagowieszczenka,blaghwfyshtshynka,blaqwwshchnka  rwsyh,bu la ge wei shen ka_,Благавешчанка,Благовещенка,Благовіщенка,Բլագովեշչենկա,بلاغوفيشتشينكا,بلاقووشچنکا، روسیه,布拉戈维申卡_",12319,7.0,52.83333,79.86667,2717.92
Blagoveshchensk,"BQS,Blagaveshchansk,Blagovechtchensk,Blagovescensk,Blagovescenska,Blagovescenskas,Blagoveschensk,Blagovescsenszk,Blagoveshchensk,Blagoveshensk,Blagoveshhens'k,Blagoveshhensk,Blagoveshhensk shaary,Blagovesjtjensk,Blagovesjtsjensk,Blagovestsensk,Blagovesxensk,Blagovextxensk,Blagoveŝĉensk,Blagoveşçensk,Blagoveštšensk,Blagoveščensk,Blagoveščenska,Blagoveščenskas,Blagoveșcensk,Blagovjescensk,Blagovjeshchensk,Blagovješčensk,Blagovyeshchensk,Blagovéshchensk,Blagovésxensk,Blagověščensk,Blagoweschtschensk,Blagowesjtsjensk,Blagowieszczensk,Blagowjeschtschensk,Blаgоvеsjtsjеnsk,Błagowieszczeńsk,Hailanpao,b la ko wech chen skh,beullagobesyenseukeu,blaghwfyshtshynsk,blagwwshchnsk,blagwwyshchnsk,blagwwyshchynsk,blʼgwbsznsq,buragovueshichensuku,hai lan pao,Благавешчанск,Благовешенск,Благовешченск,Благовещенск,Благовещенск шаары,Благовєщенськ,Благовјешченск,Բլագովեշչենսկ,בלאגובשצנסק,بلاغوفيشتشينسك,بلاگووشچنسک,بلاگوویشچنسک,بلاگوویشچینسک,บลาโกเวชเชนสค์,ბლაგოვეშჩენსკი,ブラゴヴェシチェンスク,海兰泡,海蘭泡,블라고베셴스크,Благовещенск",225091,9.0,50.27961,127.5405,5613.7
Blagovetschenskaya,,2780,3.0,45.0553,37.13276,1189.93
Blagoyevo,"Blagoev,Blagoeva,Blagoevo,Blagoievo,Blagojevo,Blagojewo,Blagoyevo,Blàgoievo,Błagojewo,blaghwyyfw  kwmy,blajwyyfw,blaqwyww,bu la ge ye wo,Благоев,Благоева,Благоево,Բլագոևո,بلاجوييفو,بلاغوييفو، كومي,بلاقویوو,布拉戈耶沃",2510,3.0,63.4231,47.9646,1030.19
Blechepsin,"Blecepsin,Blechenskiy,Blechepsin,Bleczepsin,Bletschepsin,Bletsjepsin,Bletxepsin,Bleçepsin,Blečepsin,Blichensin,blchpsyn,blchpsyn  rwsyh,blytshybsyn,Блечепсин,Блечепсін,Բլեչեպսին,بليتشيبسين,بلچپسین,بلچپسین، روسیه",3031,3.0,44.82028,40.50028,1232.45
Blizhne-Pesochnoye,"Blizhne-Pesochnoe,Blizhne-Pesochnoye,Blizhnepesochnaya,Blizjne-Pesotsjnoje,Pesochnaya,Pesochnya,Ближне-Песочное",3156,3.0,55.3456,42.1015,285.73
Blyasino,"Bljasino,Blyasino,Блясино",0,3.0,56.94565,28.30621,588.26
Bobrov,"Babrou,Bobrov,Bobrovas,Bobrow,Borrov,bo bu luo fu,bwbrwf,bwbrwf  rwsyh,Баброў,Бобров,Бобров балһсн,بوبروف,بوبروف، روسیه,博布羅夫,Бобров",20587,3.0,51.0994,40.0244,541.34
Bobrovka,"Bobrovka,Bobrovskij,Bobrovskiy,Бобровка,Бобровский",3560,5.0,54.047,61.7455,1546.43
Bobrovskiy,"Bobrovskij,Bobrovskiy,Bobrovskoye,Бобровский",5198,5.0,56.6732,60.9807,1441.41
Bodaybo,"Bodaibo,Bodajbo,Bodaybo,ODO,Бодайбо,Бодайбо",15933,8.0,57.85056,114.19333,4414.68
Bogandinskiy,"Bogandinskaya,Bogandinskij,Bogandinskiy,Bogandinskoye,Богандинский",9586,5.0,56.89375,65.89378,1735.7
Bogashevo,"Bogashevo,Bogashevskiy,Bogasjevo,Богашево",3773,7.0,56.36798,85.14414,2892.28
Bogatoye,"Bogatoe,Bogatoje,Bogatoye,Pavlovka,Богатое",6391,4.0,53.0601,51.3325,935.0
Bogatyr’,"Bogatyr,Bogatyr',Bogatyr’,Богатырь",1098,4.0,53.4298,49.9455,833.98
Bogatyye Saby,"Bogatye Saby,Bogatyye Saby,Saby,Богатые Сабы",7209,3.0,56.0102,50.4483,799.74
Bogdanovich,"Bogdandvich,Bogdanovich,Bogdanovichi,Bogdanovikhi,Bogdanovitsj,Богданович,Богданович",32270,5.0,56.78028,62.04944,1505.05
Bogolyubovo,"Bogoljubovo,Bogolyubovo,Боголюбово",4121,3.0,56.19052,40.52313,187.36
Bogoroditsk,"Bagarodzick,Bogorodic'k,Bogorodick,Bogorodickas,Bogoroditk,Bogoroditsk,Bogorodizk,Bogorodițk,Boqorodick,Boqorodiçk,bo ge luo ji ci ke,bogolodicheukeu,bogorojitsuku,bwghwrwdytsk,bwgwrwdytsk,Багародзіцк,Богородицк,Богородицьк,بوغوروديتسك,بوگورودیتسک,ボゴロジツク,博戈羅季茨克,보고로디츠크,Богородицк",31897,3.0,53.7701014,38.1225152,222.79
Bogorodsk,"Bagarodsk,Bogorods'k,Bogorodsk,Bogorodskas,Bogorodskoje,Bogorodskoye,Boqorodsk,bo ge luo ci ke,bwghwrwdsk,bwgwrwdsk  astan nyzhny nwwgwrwd,Багародск,Богородск,Богородськ,بوغورودسك,بوگورودسک، استان نیژنی نووگورود,博戈羅茨克,Богородск",36652,3.0,56.10149,43.5101,369.15
Bogorodskoye,"Bogorodskoe,Bogorodskoye,Богородское",103000,3.0,55.81353,37.71617,9.28
Bogoslovka,"Bogoslovka,Богословка",4636,3.0,53.20837,44.80133,543.21
Bogotol,"Bagatol,Bogotol,Bogotolas,Bogotoł,Borotol,bo ge tuo er,bogotol,bwghwtwl,bwgwtwl,Багатол,Боготол,بوغوتول,بوگوتول,波戈托爾,보고톨,Боготол",23622,7.0,56.20778,89.53417,3152.97
Bogovarovo,"Bogovarovo,Боговарово",2327,3.0,58.97578,47.02087,667.37
Bograd,"Bagrad,Bograd,Боград",4623,7.0,54.23444,90.83278,3314.71
Boguchany,"BGS,Boguchany,Bogutsjany,Богучаны",11209,7.0,58.38139,97.45306,3508.6
Boguchar,"Boguchar,Bogutsjar,Богучар,Богучар",15048,3.0,49.93577,40.545,675.86
Bokhan,"Bokhan,Бохан",5387,8.0,53.153,103.7714,4121.83
Bokino,"Bokino,Бокино",4016,3.0,52.63744,41.45968,427.05
Bokovskaya,"Bokovskaja,Bokovskaya,Боковская",5032,3.0,49.22899,41.8306,779.11
Boksitogorsk,"Baksitagorsk,Boksitogors'k,Boksitogorsk,Boksitogorska,Boksitogorskas,Boksitoqorsk,Bokszitogorszk,bo ke xi tuo ge er si ke,bogsitogoleuseukeu,bokushitogorusuku,bwksytwghwrsk,bwksytwgwrsk,Баксітагорск,Бокситогорск,Бокситогорськ,بوكسيتوغورسك,بوکسیتوگورسک,ბოქსიტოგორსკი,ボクシトゴルスク,博克西托戈爾斯克,복시토고르스크,Бокситогорск",17366,3.0,59.48684,33.85652,471.59
Bol'shiye Vyazëmy,"Bol'shie Vjazjomy,Большие Вязёмы",4876,3.0,55.62058,36.9762,42.67
Bol'shoe Isakovo,"Bol'shoe Isakovo,Bol'shoye Isakovo,Bol’shoye Isakovo,Isakovo,Большое Исаково,Исаково",3187,2.0,54.71774,20.60284,1082.03
Bolgar,"Bolgar,Bulgar,Kuybyshev,Spask,Spassk,Spassk-Tatarskiy,Болгар,Болгар",8650,3.0,54.974891,49.0303882,725.73
Bolgatovo,"Bolgatovo,Bolgotovo,Болгатово",0,3.0,56.80306,28.94876,547.23
Bolkhov,"Bolchov,Bolchovas,Bolchow,Bolhovo,Boljov,Bolkhau,Bolkhov,Bolĥovo,Bołchow,Bóljov,Bólkhov,bo er huo fu,bolhopeu,boruhofu,bwlkhwf,Болхаў,Болхов,Болхов балһсн,بولخوف,ボルホフ,博爾霍夫,볼호프,Болхов",11904,3.0,53.44295,36.00546,276.92
Bologoye,"Bologoe,Bologoje,Bologoye,Бологое,Бологое",25142,3.0,57.88587,34.05324,321.29
Bologoye-4,"Bologoye-4,Ozernyy,Ozjornyj,Ozërnyy,Озёрный",10661,3.0,57.9,33.65,339.38
Bolokhovo,"Bolochevo,Bolokhovka,Bolokhovo,Болохово,Болохово",10084,3.0,54.08378,37.82895,186.02
Bolotnoye,"Bolotinskoe,Bolotnoe,Bolotnoje,Bolotnoye,Болотное,Болотное",17704,7.0,55.67167,84.39806,2874.14
Bolshevo,"Bolshevo,Болшево",10133,3.0,55.93486,37.83002,24.32
Bolshoy Kamen,Большой Камень,39257,10.0,43.1111742,132.3480082,6441.0
Bol’shaya Dobrinka,"Bol'shaja Dobrinka,Bol'shaya Dobrinka,Bolsjaja Dobrinka,Bol’shaya Dobrinka,Большая Добринка",0,3.0,51.87976,40.84073,479.71
Bol’shaya Izhora,"Bol'shaja Izhora,Bol'shaya Izhora,Bolsjaja Izjora,Bol’shaya Izhora,Haisevaisi,Большая Ижора",3712,3.0,59.93819,29.56859,665.05
Bol’shaya Martynovka,"Bol'shaja Martynovka,Bol'shaya Martinovka,Bol'shaya Martynovka,Bol.Martynovka,Bol’shaya Martinovka,Bol’shaya Martynovka,Martynov,Martynovka,Martynovskoye,Martynowskoje,Бол.Мартыновка,Большая Мартыновка",0,3.0,47.27421,41.66681,983.08
Bol’shaya Rechka,"Bol'shaja Rechka,Bol'shaya Rechka,Bolsjaja Retsjka,Bol’shaya Rechka,Большая Речка",2600,8.0,51.95361,104.73356,4247.94
Bol’shaya Setun’,"Bol'shaja Setun',Bol'shaya Setun',Bol’shaya Setun’,Большая Сетунь",20000,3.0,55.71667,37.41667,13.06
Bol’shaya Tura,"Bol'shaja Tura,Bol'shaya Tura,Bol’shaya Tura,Большая Тура",1111,9.0,51.61642,114.11242,4798.2
Bol’sherech’ye,"Bol'sherech'e,Bol'sherech'ye,Bol'sherechenskoye,Bolsjeretsje,Bol’sherechenskoye,Bol’sherech’ye,Большеречье",12072,6.0,56.09252,74.62716,2278.5
Bol’sheust’ikinskoye,"Bol'she-Ust'-Ikinsk,Bol'sheust'ikinskoe,Bol'sheust'ikinskoye,Bolsjeustikinskoje,Bol’she-Ust’-Ikinsk,Bol’sheust’ikinskoye,Большеустьикинское",6397,5.0,55.9506,58.268,1284.48
Bol’shoy Kamen’,"Bol'shoj Kamen',Bol'shoy Kamen',Bolshoy Kamen,Bol’shoy Kamen’,Большой Камень",38100,10.0,43.11283,132.354,6441.19
Bol’shoy Karay,"Bol'shoj Karaj,Bol'shoy Karay,Bol’shoy Karay,Большой Карай",2180,4.0,51.60542,42.69006,569.17
Bol’shoy Khomutets,"Bol'shoj Khomutec,Bol'shoy Khomutets,Bol’shoy Khomutets,Большой Хомутец",1190,3.0,52.78285,39.87214,361.19
Bol’shoy Kunaley,"Bol'shoj Kunalej,Bol'shoy Kunaley,Bolsjoj Kunalej,Bol’shoy Kunaley,Kunaleiskoye,Kunaley,Kunaleyskoye,Большой Куналей",1250,8.0,51.43203,107.6089,4444.86
Bol’shoy Samovets,"Bol'shoj Samovec,Bol'shoy Samovets,Bol'shoye Samovets,Bol’shoy Samovets,Bol’shoye Samovets,Samovets,Samovots,Большой Самовец",0,3.0,51.9053,40.4777,467.08
Bol’shoye Boldino,"Bol'shoe Boldino,Bol'shoye Boldino,Bol’shoye Boldino,Большое Болдино",5100,3.0,55.00562,45.31292,493.05
Bol’shoye Gryzlovo,"Bol'shoe Gryzlovo,Bol'shoye Grizlovo,Bol'shoye Gryzlovo,Bol’shoye Grizlovo,Bol’shoye Gryzlovo,Verkhneye Gryzlovo,Большое Грызлово",1328,3.0,54.80033,37.63939,105.86
Bol’shoye Kozino,"Bol'shoe Kozino,Bol'shoye Kozino,Bolshoye Kozino,Bol’shoye Kozino,Большое Козино",6723,3.0,56.40397,43.71424,385.19
Bol’shoye Murashkino,"Bol'shoe Murashkino,Bol'shoye Murashkino,Bol.Murasjkino,Bol’shoye Murashkino,Murashkino,Большое Мурашкино",7000,3.0,55.78261,44.77541,447.68
Bol’shoye Selo,"Bol'shoe Selo,Bol'shoye Selo,Bolsjoje Selo,Bol’shoye Selo,Большое Село",3885,3.0,57.71774,38.93341,232.86
Bol’shoye Skuratovo,"Bol'shoe Skuratovo,Bol'shoye Skuratovo,Bol’shoye Skuratovo,Skuratovo,Большое Скуратово,Скуратово",1200,3.0,53.43852,36.84085,262.06
Bol’shoye Soldatskoye,"Bol'she Soldatskoye,Bol'shoe Soldatskoe,Bol'shoye Soldatskoye,Bolsjoje Soldatskoje,Bol’she Soldatskoye,Bol’shoye Soldatskoye,Soldatskoye,Большое Солдатское",0,3.0,51.33795,35.50665,510.18
Bondari,"Bondari,Бондари",0,3.0,52.94975,42.06004,424.18
Bor,"Bor,Bor i Nizjegorod oblast,Boras,Motavka,bo er,boleu,bwr,bwr  astan nyzhny nwwgwrwd,Бор,بور,بور، استان نیژنی نووگورود,博爾,보르,Бор",78079,3.0,56.3565458,44.0646481,405.88
Borgustanskaya,"Borgustanskaja,Borgustanskaya,Боргустанская",4250,3.0,44.0547,42.5288,1346.61
Borinskoye,"Borinskiye Zavody,Borinskoe,Borinskoje,Borinskoye,Боринское",5998,3.0,52.4569,39.3713,383.85
Borisoglebsk,"Barysaglebsk,Borisoglebs'k,Borisoglebsk,Borisoglebska,Borisoglebskas,Borisogļebska,Borisoqlebsk,Borissoglebsk,Borysoglebsk,bao li suo ge lie bu si ke,bolisogeullebseukeu,bwryswghlybsk,bwryswglbsk,bwryswglybsk,Барысаглебск,Борисоглебск,Борисоглебск балһсн,Борисоглєбськ,بوريسوغليبسك,بوریسوگلبسک,بوریسوگلیبسک,鲍里索格列布斯克,보리소글렙스크,Борисоглебск",68597,3.0,51.36713,42.08494,569.73
Borisoglebskiy,"Borisoglebskaya Sloboda,Borisoglebskij,Borisoglebskiy,Borisoglebskiye Slobody,Борисоглебский",5832,3.0,57.26204,39.15404,192.59
Borisova Griva,"Borisova Griva,Борисова Грива",1032,3.0,60.08936,30.97727,620.89
Borisovka,"Bohsouka,Borisovka,Borissowka,Борисовка",14148,3.0,50.60155,36.01549,582.53
Borodino,"Baradzino,Borodinas,Borodino,Borodino i Krasnojarsk kraj,Borodinó,bo luo ji nuo,bolodino,bwrwdynw,bwrwdynw  krasnwyarsk,Барадзіно,Бородино,بورودينو,بورودینو، کراسنویارسک,博羅季諾,보로디노,Бородино",19602,7.0,55.9061,94.9079,3473.82
Borodinskiy,"Borodino,Borodinskij,Borodinskiy,Бородинский",6447,3.0,53.99859,37.81792,195.42
Borogontsy,"Borogoncy,Borogontsi,Borogontsy,Борогонцы",5280,9.0,62.6706,131.16344,4901.58
Borok,"Borok,Grigorovo,Борок",1800,3.0,58.06532,38.2362,259.95
Borovichi,"Baravichy,Borovichi,Borovichí,Borovici,Boroviciai,Borovitchi,Borovitji,Borovitsi,Borovitsji,Borovitši,Boroviçi,Boroviĉi,Boroviči,Borovičiai,Borowicze,Borowitschi,bo luo wei qi,bolobichi,borovuichi,bwrwfytshy,bwrwwychy,Баравічы,Боровичи,Боровичі,بوروفيتشي,بوروویچی,ボロヴィチ,博羅維奇,보로비치,Боровичи",56571,3.0,58.39418,33.91864,368.98
Borovikha,"Borovikha,Боровиха",6712,7.0,53.5072,83.8379,2929.97
Borovoy,"Borovaya,Borovoj,Borovoy,Боровой",5942,7.0,55.43333,86.08333,2982.73
Borovsk,"Borovs'k,Borovsk,Borowsk,Bórovsk,bo luo fu si ke,bolobseukeu,borofusuku,bwrwfsk,Боровск,Боровськ,بوروفسك,بوروفسک,ボロフスク,博羅夫斯克,보롭스크,Боровск",12283,3.0,55.2130096,36.4926251,92.74
Borovskiy,"Borovskij,Borovskiy,Боровский",15406,5.0,57.04096,65.72018,1723.15
Borskoye,"Borskoe,Borskoje,Borskoye,Борское",9119,4.0,53.03333,51.71667,959.67
Borzoy,"Al'pijskoe,Al'piyskoye,Al’pijskoe,Al’piyskoye,Barzoy,Borze,Borzoj,Borzoy,Альпийское,Борзе,Борзой",4218,3.0,42.84147,45.62746,1546.27
Borzya,"Bolzhia,Borzia,Borzja,Borzya,Борзя,Борзя",31376,9.0,50.3876058,116.5234779,5015.24
Boshnyakovo,"Bol'shakovo,Bol’shakovo,Boshnjakovo,Boshnyakovo,Bosjnjakovo,Nishi-sakutan,Nishisakovtan,Nisisakutan,Posyolok,Sakotan,Shakotan,Vos-Bushin'yakov,Vos-Bushin’yakov,Бошняково",1491,11.0,49.64572,142.17047,6385.8
Botashyurt,"Batashjurt,Batashyurt,Botash-Jurt,Botashjurt,Botashyurt,Баташюрт,Боташ-Юрт,Боташюрт",3786,3.0,43.30801,46.50991,1522.49
Botayurt,"Batajurt,Batayurt,Botajurt,Botayurt,Батаюрт,Ботаюрт",4093,3.0,43.31865,46.68371,1526.6
Botlikh,"Botlich,Botlikh,Kitlikh,Ботлих",0,3.0,42.66531,46.2203,1580.93
Brateyevo,"Bratyevo,Brateevo,Brateyevo,Brat”yevo,Братеево",102000,3.0,55.63755,37.76438,15.8
Bratovshchina,"Bratovshchina,Bratovshhina,Bratovsjtsjina,Братовщина",1394,3.0,56.05,37.88333,37.08
Bratsk,"BTK,Brack,Brats'k,Bratsk,Bratska,Bratskas,beulacheukeu,bratsk,bu la ci ke,buratsuku,Братск,Братськ,Брацк,براتسك,براتسک,ブラーツク,布拉茨克,브라츠크,Братск",256600,8.0,56.1325,101.61417,3839.36
Bredy,"Bredi,Bredy,Bredı,Brehdy,Briedy,brdy  rwsyh,brydy,Бреди,Бреды,Брэды,Բրեդի,بردی، روسیه,بريدى,بريدي",10450,5.0,52.41528,60.34111,1520.49
Breytovo,"Brejtovo,Breytovo,Брейтово",3632,3.0,58.29925,37.86172,283.61
Brodokalmak,"Brodokalmak,Brodokamlak,Бродокалмак",3466,5.0,55.5748,62.082,1526.67
Bronnitsy,"Bronicai,Bronici,Bronnici,Bronnicy,Bronniti,Bronnitsi,Bronnitso,Bronnitsy,Bronnitsõ,Bronnizy,Bronnițî,Brónnitsi,beulonichi,brwnytsy,bu long ni qi,buron'nitsui,Броници,Броннитси,Бронницы,Бронницы балһсн,Бронниці,Бронніцы,برونيتسي,برونیتسی,ブロンニツィ,布龍尼齊,브로니치,Бронницы",21102,3.0,55.4255379,38.264145,54.59
Brusyanka,"Brusianskij,Brusjanka,Brusjanskij,Brusyanka,Brusyanskiy,Брусянка,Брусянский",3277,3.0,53.98492,38.03593,198.35
Bryansk,"BZK,Breansk,Briansk,Briańsk,Brjansk,Brjansko,Bryansk,beulyanseukeu,Брянск,Брјанск,브랸스크,Брянск",427236,3.0,53.25209,34.37167,347.99
Bryukhovetskaya,"Brjukhoveckaja,Brjukhovetskaja,Bryukhovetskaya,Брюховецкая",22309,3.0,45.80603,38.99959,1110.18
Budagovo,"Budagovo,Будагово",2000,8.0,54.6255,100.13109,3833.52
Budenovetc,"Budenovetc,Budjonovec,Будёновец",1268,3.0,56.37975,37.62774,69.78
Budogoshch’,"Budogoschtsch,Budogoschtsch-Sumpe,Budogoshch',Budogoshch’,Budogoshh',Budogosjtsj,Будогощь",3865,3.0,59.28158,32.47074,498.11
Budyonnovsk,"Budennovsk,Budennowsk,Budenovsk,Budjennowsk,Budjonnovsk,Budyonnovsk,Budyonovsk,Budënnovsk,Karabagly,Prikumsk,Svetaya Kresta,Svyatoy Krest,Буденновск,Будённовск",67962,3.0,44.78389,44.16583,1304.05
Bugry,"Bugry,Pukra,Бугры",6154,3.0,60.07121,30.39225,641.7
Bugulma,"Bugul'ma,Bugulina,Buguljma,Bugulma,Bugul’ma,Bөgelmə,UUA,Бугульма,Бөгелмә,Бугульма",91900,3.0,54.5378,52.7985,972.24
Buguruslan,"Bogoroslan,Bogyryslan,Bougourouslan,Bugurslan,Buguruslan,Buguruslanas,Buguruslano,Buguruslán,Buguruszlan,Bugurusłan,Buquruslan,bu gu lu si lan,buguluseullan,bwghwrwslan,bwgwrwslan,Богырыслан,Боғорослан,Бугурслан,Бугуруслан,بوغوروسلان,بوگوروسلان,布古魯斯蘭,부구루슬란,Бугуруслан",53511,5.0,53.6554,52.442,978.62
Buinsk,"Boeinsk,Bouinsk,Bouïnsk,Bua,Buinsk,Pava,bu yin si ke,bu-inseukeu,buinsuku,bwynsk,bwyynsk  tatarstan,Буинск,Буінск,Пăва,بوينسك,بویینسک، تاتارستان,ブインスク,布因斯克,부인스크,Буинск",20342,3.0,54.9641538,48.2901209,679.69
Bukachacha,"Bukachacha,Bukatsjatsja,Букачача",3372,9.0,52.98333,116.91667,4859.68
Bulanash,"Bulanash,Bulanasj,Буланаш",13056,5.0,57.27825,61.9965,1497.14
Bulgakovo,"Bulgakovo,Булгаково",3591,5.0,54.4968,55.8843,1166.44
Burayevo,"Buraevo,Burajevo,Burayevo,Бураево",8963,5.0,55.84069,55.40834,1109.14
Burevestnik,"Burevestnik,Sovkhoz Burevestnik,Буревестник",3054,3.0,56.14403,43.78832,386.66
Bureya,"Bureia,Bureja,Bureya,Бурея",5383,9.0,49.81212,129.81278,5766.83
Buribay,"Buribai,Buribaj,Buribay,Buryubaeva,Бурибай",4461,5.0,51.96167,58.15917,1405.64
Burla,"Burla,Бурла",4682,7.0,53.3362,78.3301,2601.58
Burlatskoye,"Burlackoe,Burlatskoe,Burlatskoje,Burlatskoye,Бурлатское,Бурлацкое",3637,3.0,45.05639,43.635,1262.35
Burmakino,"Burmakina,Burmakino,Burmikino,bu er ma ji nuo,bwrmakynw,Бурмакино,Бурмакіна,Բուրմակինո,بورماكينو,بورماکینو,布尔马基诺",3318,3.0,57.41663,40.23687,244.95
Burtunay,"Burtunaj,Burtunay,Буртунай",4014,3.0,42.9886,46.63034,1559.12
Butka,"Butka,Butki,Бутка",3510,5.0,56.71788,63.78661,1611.06
Buturlino,"Buturlino,Бутурлино",6388,3.0,55.56694,44.895,456.86
Buturlinovka,"Boutourlinovka,Buturlinauka,Buturlinivka,Buturlinovka,Buturlinovskiy,Buturlinowka,Buturlínovka,bu tu er li nuo fu ka,butuleullinobka,bwtwrlynwfka,Бутурлиновка,Бутурлиновка балһсн,Бутурлинівка,Бутурлінаўка,بوتورلینوفکا,布圖爾利諾夫卡,부투를리놉카,Бутурлиновка",28581,3.0,50.8299,40.6067,582.19
Buy,"Buj,Buy,Буй,Буй",26486,3.0,58.47959,41.53587,384.56
Buynaksk,"Boejnaksk,Buinaksk,Bujnakhsk,Bujnaksk,Buynaksk,Temir Khan Choura,Temir-Khan-Shura,bu-inagseukeu,Буйнакск,Буйнахъск,부이낙스크,Буйнакск",65735,3.0,42.8214424,47.1165263,1591.04
Buzdyak,"Buzdjak,Buzdyak,Буздяк",9752,5.0,54.58333,54.55,1080.6
Buzuluk,"Bouzoulouk,Bozaulyk,Busuluk,Buzuluk,Buzulukas,Buzułuk,bu zu lu ke,bujullukeu,bwzwlwk,Бозаулык,Бузулук,Быҙаулыҡ,بوزولوك,بوزولوک,布祖盧克,부줄루크,Бузулук",87714,5.0,52.7807,52.2635,1004.69
Bykov,"Bykov,Naibuchi,Naybuti,Быков",4672,11.0,47.32099,142.56226,6603.08
Bykovo,"Bykovo,Быково",10700,3.0,55.63614,38.08027,31.86
Bylym,"Byllym,Bylym,Ugol'nyy,Ugol’nyy,Былым",2064,3.0,43.46286,43.04345,1420.3
Bystrogorskiy,"Bystrogorskij,Bystrogorskiy,Быстрогорский",3859,3.0,48.20813,41.14097,872.63
Bystryanka,"Bystrjanka,Bystryanka,Bystryanskoye,Быстрянка",1838,7.0,52.28611,85.82833,3108.48
Bystryy Istok,"Bystry Istok,Bystryiy Istok,Bystryj Istok,Bystryy Istok,Быстрый Исток",4455,7.0,52.37145,84.38734,3016.43
Bytosh’,"Bitos,Bitosa,Bitosh,Bitosj,Bitoša,Bytash,Bytoch,Bytos',Bytosch,Bytosh',Bytoshskiy,Bytosh’,Bytosj,Bytoš',Bıtoş,bei tuo xi,bytwsh  rwsyh,Битош,Быташ,Бытошь,بیتوش، روسیه,贝托希",4425,3.0,53.81861,34.09116,311.85
Centralniy,"Central'nyj,Центральный",214625,3.0,59.93111,30.36072,631.98
Chaadayevka,"Chaadaevka,Chaadayevka,Tsjaadajevka,Чаадаевка",7072,3.0,53.1427,45.9122,609.31
Chad,"Chad,Чад",5100,5.0,56.21795,56.31883,1160.98
Chadan,"Chadan,Chadana,Dzhedanna,Tsjadan,Чадан,Чадан",9246,7.0,51.28333,91.58333,3510.18
Chagoda,"Belyy Bychek,Belyy Bychok,Cagod,Cagoda,Chagada,Chagoda,Csagoda,Czagoda,Tsagoda,Tschagoda,Tsjagoda,Txagoda,Tšagoda,chaqwda  rwsyh,qia ge da,Çagoda,Čagod,Čagoda,Чагада,Чагода,چاقودا، روسیه,恰戈达",7288,3.0,59.164,35.3285,403.22
Chaltyr,"Chaltyr,Chaltyr',Chaltyr’,Tschaltyr,Tsjaltyr,Чалтырь",14689,3.0,47.28477,39.48232,950.26
Chamlykskaya,"Chamlikskaya,Chamlykskaja,Chamlykskaya,Chamlyskaya,Tschamlykaja,Tsjamlykskaja,Чамлыкская",3722,3.0,44.71583,40.87861,1248.58
Chamzinka,"Chamzinka,Tsjamzinka,Чамзинка",9500,3.0,54.40188,45.78387,540.84
Chany,"Cani,Cany,Chani,Chany,Chanyj,Csani,Czany,Tchany,Tsany,Tschany,Tsjani,Tsjany,Tšany,chany  rwsyh,qia nei,Çanı,Čany,Чани,Чаны,Чаный,Չանի,چانی، روسیه,恰内",8923,7.0,55.31205,76.76468,2431.18
Chapayevsk,"Capaevsk,Capajevsk,Capajewsk,Ceapaievsk,Chapaeusk,Chapaevs'k,Chapaevsk,Chapajevsk,Chapayevsk,Chapáyevsk,Czapajewsk,Ivashchenkovo,Tchapaievsk,Tchapaïevsk,Tjapajevsk,Trotsk,Tsapajevsk,Tschapajewsk,Tsjapajevsk,Tšapajevsk,chapayebseukeu,chapayfsk,chpayywsk,qia pa ye fu si ke,tshabayyfsk,Ĉapajevsk,Čapaevsk,Čapajevsk,Čapajewsk,Чапаевск,Чапаеўск,Чапаєвськ,Чапајевск,تشاباييفسك,چاپایفسک,چپائیوسک,恰帕耶夫斯克,차파옙스크,Чапаевск",72689,4.0,52.928961,49.8673269,852.55
Chaplygin,"Chaplygin,Ranenburg,Tsjaplygin,Чаплыгин,Чаплыгин",13488,3.0,53.2342,39.96135,318.31
Chara,"Char,Chara,Staraja Chara,Старая Чара,Чара",1974,9.0,56.90639,118.26306,4676.76
Charyshskoye,"Charishskaya,Charyshskoe,Charyshskoye,Tsjarysjskoje,Чарышское",3371,7.0,51.3978,83.5598,3014.29
Chashnikovo,"Chashnikovo,Tsjasjnikovo,Чашниково",3300,3.0,56.03333,37.16667,41.96
Chastyye,"Chastye,Chastyye,Tsjastye,Частые",4907,5.0,57.28876,54.97278,1075.25
Chaykovskaya,"Chajkovskaja,Chaykovskaya,Tsjajkovskaja,Чайковская",3007,5.0,58.1288,55.5352,1114.99
Chaykovskiy,"Cajkovski,Chajkovskij,Chaykovskiy,Chaykovsky,Tsaikovski,Tschaikowski,Tsjajkovskij,Tšaikovski,Čajkovski,Чайковский",86712,5.0,56.76864,54.11484,1022.71
Chaykovsky,Чайковский,82933,5.0,56.7781501,54.1477965,1024.71
Chebarkul,Чебаркуль,43405,5.0,54.9818567,60.3773121,1434.46
Chebarkul’,"Chebarkul',Chebarkul’,Tsjebarkul,Чебаркуль",46502,5.0,54.9749,60.3633,1433.76
Cheboksary,"CSY,Ceboksarad,Ceboksarai,Ceboksari,Ceboksary,Ceboksarî,Chabaksar,Cheboksar,Cheboksar',Cheboksara,Cheboksari,Cheboksary,Cheboksar’,Chehbaksary,Choupachkar,Csebokszari,Csebokszári,Czeboksary,Shoupashkaru,Shovakshehҥer,Shubashkar,Shupashkar,Shyvashar,Supaskar,Tcheboksary,Tjeboksary,Tscheboksary,Tscheboxari,Tseboksaro,Tseboksary,Tsjeboksari,Tsjeboksary,Txeboksari,Txeboksary,Tšeboksary,Tšeboksarõ,chebogsali,cheboksari,chebokusaru,chybwksary,qie bo ke sa lei,tshybwksary,zbwqsry,Çeboksarı,Ĉeboksari,Čeboksarad,Čeboksarai,Čeboksari,Čeboksary,Şupaşkar,Чабаксар,Чебоксар,Чебоксара,Чебоксари,Чебоксары,Чэбаксары,Шовакшэҥер,Шоупашкаръ,Шубашкар,Шупашкар,Шывашар,Չեբոքսարի,צבוקסרי,تشيبوكساري,چاباق‌سر,چیبوکساری,چیبوکسارے,ჩებოქსარი,チェボクサル,切博克萨雷,체복사리,Чебоксары",492331,3.0,56.13222,47.25194,601.07
Chebsara,"Chabsara,Chebsara,Tsjebsara,Чебсара",1742,3.0,59.20016,38.83556,390.25
Chechen-Aul,"Cecana,Cecen-Aul,Chechana,Chechen-Aul,Kalinovka,Tsjetsjen-Aul,Çeçana,Čečen-Aul,Калиновка,Чечана,Чечен-Аул",7134,3.0,43.2,45.78889,1513.06
Chegdomyn,"Chagdamin,Chagdamyn,Chegdomyn,Tsjegdomyn,Чегдомын",14855,10.0,51.12853,133.00827,5824.8
Chegem,"Chegem,Chegem Pervyj,Chegem Pervyy,Tsjegem Pervyj,Чегем,Чегем Первый,Чегем",18000,3.0,43.56722,43.58528,1420.11
Chegem Vtoroy,"Chechem,Chegem Vtoroj,Chegem Vtoroy,Tsjegem Vtoroj,Чегем Второй",10951,3.0,43.59583,43.59944,1417.35
Chekalin,"Chekalin,Dikhvin,Likhvin,Tsjekalin,Чекалин,Чекалин",1105,3.0,54.09685,36.24499,203.83
Chekhov,"Cechov,Cehov,Cehova,Cexov,Chehkhau,Chejov,Chekhov,Chéjov,Czechow,Lopasnya,Tchekhov,Tjechov,Tschechow,Tsehhov,Tsehov,Tsjekhov,Tsjekhov i Moskva oblast,Tšehhov,Tšehov,chehofu,chehopeu,chkhwf  astan mskw,chykhwf,qi he fu,tshykhwf,Çexov,Ĉeĥov,Čechov,Čehov,Čehova,Чехов,Чэхаў,تشيخوف,چخوف، استان مسکو,چیخوف,チェーホフ,契訶夫,체호프,Чехов",75643,3.0,55.14552,37.46193,68.15
Chekmagush,"Chekmagush,Chekmagushi,Tsjekmagusj,Чекмагуш",11225,5.0,55.13194,54.65556,1074.27
Chelbasskaya,"Chelbaskaya,Chelbasskaja,Chelbasskaya,Tsjelbasskaja,Челбасская",7080,3.0,45.97924,39.37186,1093.58
Chelno-Vershiny,"Chelno-Vershiny,Tsjelno-Versjiny,Челно-Вершины",6015,4.0,54.4148,51.08594,868.69
Chelyabinsk,"CEK,Celabinsk,Celabinska,Celaebinsk,Celeabinsk,Celiabinsc,Celiabinsca,Celiabinskas,Celjabinsk,Celjabinsko,Celyabinsk,Chaljabinsk,Chelepi,Cheliabinsk,Cheliábinsk,Cheljaba,Cheljaba osh,Cheljabe,Cheljabi,Cheljabins'k,Cheljabinsk,Chelyabinsk,Cseljabinszk,Czelabinsk,Czelabińsk,Tcheliabinsk,Tchelyabinsk,Tchéliabïnsk,Tjeljabinsk,Tscheljabinsk,Tseliampinsk,Tseljabinsk,Tsjeljabinsk,Tsyelyabinsk,Txeliabinsk,Txeliàbinsk,Tšeljabinsk,celiyabinska,celyabinska,che li ya bin si ke,chellyabinseukeu,cheryabinsuku,chlyabnsk,chlyabynsk,chylyabnsk,tshylyabnsk,zlyʼbynsq,Çelyabinsk,Ĉeljabinsko,Čeliabinskas,Čeljabinsk,Čeläbinsk,Čeļabinska,Čeľabinsk,Τσελιάμπινσκ,Силәбе,Чалябінск,Челепи,Челяба,Челяба ош,Челябе,Челябинск,Челябі,Челябінськ,Чељабинск,Чиләбе,Чєлѣбиньскъ,Չելյաբինսկ,טשעליאבינסק,צליאבינסק,تشيليابنسك,چلیابنسک,چلیابینسک,چیلیابنسک,चेलियाबिन्स्क,चेल्याबिंस्क,চেলিয়াবিন্‌স্ক,ჩელიაბინსკი,チェリャビンスク,車里雅賓斯克,첼랴빈스크,Челябинск",1202371,5.0,55.15402,61.42915,1495.67
Chemal,"Chemal,Chemla,Tsjemal,Чемал",3284,7.0,51.41111,86.005,3163.78
Chemodanovka,"Chemodanovka,Tsjemodanovka,Чемодановка",5002,3.0,53.23162,45.24738,566.56
Cherdakly,"Cherdakly,Tsjerdakly,Чердаклы",11939,4.0,54.3594,48.84497,730.9
Cherdyn,Чердынь,4920,5.0,60.4011933,56.4799933,1218.05
Cherdyn’,"Cherdyn',Cherdyn’,Tscherdyn,Tsjerdyn,Чердынь",5585,5.0,60.40295,56.47868,1218.04
Cheremisinovo,"Cheremisinovo,Tsjeremisinovo,Черемисиново",3983,3.0,51.88553,37.2646,430.57
Cheremkhovo,"Cheremkhovo,Tseremhovo,Tsjeremkhovo,Tšeremhovo,Черемхово,Черемхово",57395,8.0,53.15611,103.0675,4081.51
Cheremnoye,"Cheremnoe,Cheremnovo,Cheremnovskoye,Cheremnoye,Tsjeremnoje,Черемное",4458,7.0,53.16972,83.21333,2907.3
Cheremshan,"Cheremshan,Tsjeremsjan,Черемшан",5646,3.0,54.66667,51.5,887.6
Cheremshanka,"Cheremshanka,Tsjeremsjanka,Черемшанка",1161,5.0,56.1192,60.26804,1405.11
Cheremushskiy,"Cheremukha,Cheremushskij,Cheremushskiy,Cherëmukha,Tsjeremusjskij,Черемушский",1093,3.0,61.27306,47.26361,829.53
Cherepanovo,"Cherepanovo,Tsjerepanovo,Черепаново,Черепаново",20125,7.0,54.2222,83.381,2871.35
Cherepet’,"Cherepet',Cherepet’,Tsjerepet,Черепеть",2070,3.0,54.11784,36.37877,198.16
Cherepovets,"CEE,Cerepovec,Cerepoveca,Cerepovecas,Cerepoveco,Cerepovet,Cerepovets,Cerepoveț,Cerjepowjec,Charapavec,Cherepovec,Cherepovec',Cherepovets,Cherepovetz,Cherepovéts,Cserepovec,Czerepowiec,Tcherepovets,Tjerepovets,Tscherepowez,Tserepovets,Tsjerepovets,Txerepovets,Tšerepovets,chelepobecheu,cherepovuetsu,chrpwwts,chyrypwwts,qie lie bo wei ci,tshyrybwfyts,Çerepovets,Ĉerepoveco,Čerepovec,Čerepoveca,Čerepovecas,Čerjepowjec,Чарапавец,Череповетс,Череповец,Череповець,تشيريبوفيتس,چرپووتس,چیریپووتس,チェレポヴェツ,切列波韋茨,체레포베츠,Череповец",315738,3.0,59.13333,37.9,376.35
Cherga,"Chavia,Cherga,Tsjerga,Черга",1900,7.0,51.56889,85.5625,3128.5
Cherkasskoye,"Cherkaskoye,Cherkasskoe,Cherkasskoye,Cherkasy,Tsjerkasskoje,Черкасское",3434,4.0,52.42895,47.21048,725.79
Cherkessk,"Batalpashinsk,Cerkessk,Cherkes kuala,Cherkesk,Cherkessk,Cherkessk shakhar,Czerkiesk,Shehrdzhehs kualeh,Sherkesh shakhar,Tscherkessk,Tserkessk,Tsjerkessk,Tšerkessk,Yezhovo-Cherkessk,Zhezhoro-Cherkessk,cheleukeseukeu,cherukesuku,zrqsq,Ĉerkessk,Čerkessk,Черкес къала,Черкеск,Черкесск,Черкесск шахар,Шеркеш шахар,Шэрджэс къалэ,צרקסק,チェルケスク,체르케스크,Черкесск",122395,3.0,44.22333,42.05778,1320.02
Cherkizovo,"Cherkizovo,Tekstil'shchiki,Tekstil’shchiki,Tsjerkizovo,Черкизово",3439,3.0,55.97583,37.7875,27.08
Cherlak,"Chavlak,Cherlak,Cherlakovskaya,Cherlakskiy,Tsjerlak,Черлак",12122,6.0,54.155,74.8055,2352.61
Chermen,"Bazorkino,Bozorkino,Chermen,Tsjermen,Чермен",8550,3.0,43.15186,44.71231,1490.17
Chermoz,"Chermoz,Tsjermoz,Чермоз",4079,5.0,58.7813,56.1577,1160.31
Chernaya Rechka,"Chernaja rechka,Черная речка",56429,3.0,59.98594,30.30338,638.52
Cherneya,"Cherneja,Cherneya,Чернея",0,3.0,56.24975,28.54256,566.43
Chernigovka,"Chernigovka,Tsjernigovka,Черниговка",13969,10.0,44.34216,132.56937,6350.57
Chernitsyno,"Chernicyno,Chernitsyno,Tsjernitsyno,Черницыно",2959,3.0,51.50739,36.05101,483.11
Chernogolovka,"Cernogolovka,Cernogolowka,Cernoqolovka,Chernogolovka,Chernogolovko,Chornogolovka,Czernogolowka,Czernogołowka,Tchernogolovka,Tschernogolowka,Tsernogolovka,Tsjernogolovka,Txernogolovka,Tšernogolovka,chrnwglwwka,chrnwgwlwfka,qie er nuo ge luo fu ka,tshyrnwghwlwfka,Çernoqolovka,Ĉernogolovka,Černogolovka,Černogolowka,Черноголовка,Черноголовка балһсн,Черноголовко,Чорноголовка,تشيرنوغولوفكا,چرنوگلووکا,چرنوگولوفکا,切爾諾戈洛夫卡,Черноголовка",20986,3.0,56.010005,38.379245,55.59
Chernogorsk,"Cernogorsk,Chernogorsk,Kharatas,Tschernogorsk,Tsernogorsk,Tšernogorsk,cheleunogoleuseukeu,Ĉernogorsk,Černogorsk,Харатас,Черногорск,체르노고르스크,Черногорск",72117,7.0,53.8259342,91.3260229,3363.28
Chernoistochinsk,"Chernoistochinsk,Chernoistochinskiy,Tsjernoistotsjinsk,Черноисточинск",3646,5.0,57.73639,59.87194,1368.5
Chernolesskoye,"Chernolesskoe,Chernolesskoye,Tsjernolesskoje,Чернолесское",5386,3.0,44.71556,43.71333,1300.37
Chernomorskiy,"Chernomorskij,Chernomorskiy,Tsjernomorskij,Черноморский",8454,3.0,44.85056,38.49361,1213.79
Chernoyerkovskaya,"Chernoerkovskaja,Chernoyerkovskaya,Tsjernojerkovskaja,Черноерковская",3856,3.0,45.43306,37.76861,1147.49
Chernukha,"Chernukha,Tsjernukha,Чернуха",3448,3.0,55.59739,43.7556,385.25
Chernushka,"Chernushka,Tchernouchka,Tschernuschka,Tsjernusjka,qie er nu shen ka,Чернушка,切爾努什卡,Чернушка",35942,5.0,56.50722,56.07661,1143.64
Chernyakhovsk,"Cerniachovskas,Cernjachovsk,Cernjahovsk,Cernjakhovsk,Chernikovsk,Chernjakhovsk,Chernyakhovsk,Chernyakhovskiy,Chernyakovsky,Czerniachowsk,Instenburg,Insterburg,Isrutis,Tschernjachowsk,Tsernjahovsk,Tšernjahovsk,Wystruc,Wystruć,cheleunyahobseukeu,Ĉernjaĥovsk,Černiachovskas,Černjachovsk,Černjahovsk,Černjakhovsk,Įsrutis,Инстенбург,Черняховск,체르냐홉스크,Черняховск",45187,2.0,54.63345,21.81557,1008.3
Chernyanka,"Cernjanka,Chernjanka,Chernyanka,Tschernjanka,Tsjernjanka,Černjanka,Чернянка",15261,3.0,50.93432,37.81664,535.89
Chernyshevsk,"Chernyshevsk,Imeni Kaganovicha,Poselok Imeni Kaganovicha,Posëlok Imeni Kaganovicha,Tsjernysjevsk,Чернышевск",12466,9.0,52.52209,117.01712,4895.98
Chernyshevskiy,"Chernyshevskij,Chernyshevskiy,Tsjernysjevskij,Чернышевский",5137,9.0,63.01601,112.46901,4064.12
Chernyshkovskiy,"Chernyshkov,Chernyshkovskij,Chernyshkovskiy,Tschernyschkowski,Tsjernysjkovskij,Tzhernyshkovskiy,Чернышковский",5458,3.0,48.42188,42.23083,873.49
Chernyshëvka,"Chernyshevka,Chernyshjovka,Chernyshëvka,Tsjernysjevka,Чернышевка,Чернышёвка",3319,10.0,44.19971,133.13193,6392.22
Chern’,"Chern',Chern’,Tsjern,Чернь",6689,3.0,53.45209,36.91184,259.74
Cherskiy,"CYX,Cherskij,Cherskiy,Kresty,Nizhne-Kresty,Nizhniye Kresty,Stadukhina,Tsjerskij,Черский",3707,11.0,68.75325,161.33197,5438.73
Chertanovo Yuzhnoye,"Chertanovo Vtoroe,Chertanovo Yuzhnoye,Poselok Mosgazoprovod,Posëlok Mosgazoprovod,Чертаново Второе",142000,3.0,55.59072,37.59519,18.0
Chertkovo,"Chertkovo,Tsjertkovo,Чертково",11000,3.0,49.38451,40.14723,728.31
Cherusti,"Cerusti,Cherust',Cherusti,Cherust’,Tscherusti,Tsjeroesti,Tsjerusti,chrwsty  rwsyh,qie lu si ji,Čerusti,Черусти,چروستی، روسیه,切鲁斯季",2867,3.0,55.54976,40.01071,151.94
Chervishevo,"Chervishevo,Chervishiyevskoye,Chervishjovo,Tsjervisjevo,Червишёво",3113,5.0,56.94635,65.42782,1706.9
Cherëmukhovo,"Cheremukhovo,Cherjomukhovo,Cherëmukhovo,Tsjeremukhovo,Черемухово,Черёмухово",7270,5.0,60.34842,59.98507,1403.5
Cherëmushki,"Cheremushki,Cherjomushki,Cherëmushki,Черёмушки",106587,3.0,55.66473,37.56135,10.3
Chesma,"Chesma,Tschesma,Tsjesma,Чесма",5789,5.0,53.81111,60.65333,1485.9
Chesnokovka,"Chesnokovka,Tsjesnokovka,Чесноковка",3333,5.0,54.61242,55.94575,1167.17
Chikola,"Chikola,Cikola,Pusulmonghaew,Pusulmonghæw,Pusulmonguaeu,Tsikola,Tsjikola,Пусулмонгъæу,Цикола,Чикола",7142,3.0,43.19536,43.92043,1467.21
Chinar,"Chinar,Tsjinar,Чинар",4665,3.0,42.10798,48.14321,1696.6
Chiri-Yurt,"Cemzavod,Chir-Yurt,Chiri-Jurt,Chiri-Yurt,Chu'jrin-Ehvl,Ciri-Jurt,Cuyrin-Evl,Nadrec'e,Nadrech'e,Nadrech'ye,Nadrech’ye,Nadreč’e,Tsjiri-Jurt,Çüyrin-Evl,Čiri-Jurt,Надречье,Цемзавод,Чири-Юрт,Чуьйрин-Эвл",5136,3.0,43.08869,45.74323,1523.45
Chirkey,"Cherkai,Chirkat,Chirkej,Chirkey,Chirkkat,Staryy Chirkey,Staryy-Cherkey,Tsjirkej,Чиркей",7959,3.0,42.96131,46.97866,1572.4
Chishmy,"Chishmy,Tsjisjmy,Чишмы",22000,5.0,54.57648,55.37642,1132.5
Chistogorskiy,"Chistogorskij,Chistogorskiy,Tsjistogorskij,Чистогорский",4240,7.0,53.9835,87.3843,3121.75
Chistopol,Чистополь,60703,3.0,55.3699139,50.6285784,818.2
Chistopol’,"Chistaj,Chistopol',Chistopol’,Tsistopol,Tsjistopol,Tšistopol,Чистай,Чистополь",62200,3.0,55.36311,50.64244,819.18
Chistoye,"Chistoe,Chistoye,Tsjistoje,Чистое",1065,3.0,56.53753,43.00445,344.95
Chistyye Bory,Chistyye Bory,5103,3.0,58.369,41.65,379.56
Chita,"Chita,Chitá,HTA,Tchita,Tschita,Tsita,Tsjita,Tšita,chi ta,chita,Чита,チタ,赤塔,치타,Чита",349005,9.0,52.03171,113.50087,4736.93
Chkalovsk,"Chkalovsk,Tsjkalovsk,Vasil'yevo,Vasilevo,Vasil’yevo,Чкаловск,Чкаловск",13577,3.0,56.76492,43.2469,365.46
Chkalovskiy,"CKL,Chkalovskaya,Chkalovskij,Chkalovskiy,Shhelkovo-3,Shhjolkovo-3,Чкаловский,Щелково-3,Щёлково-3",3000,3.0,55.89534,38.07763,32.96
Chkalovskoye,"Chkalovskoe,Chkalovskoye,Tsjkalovskoje,Zen'kovka,Zen’kovka,Чкаловское",3606,10.0,44.83808,133.04332,6334.6
Chokurdakh,"Baryllakh,CKH,Chakurdakh,Chekyrdakh,Chokurdakh,Chokuurdaakh,Cokurdach,Cokurdachas,Cokurdah,Cokurdaha,Csokurdah,Czokurdach,Tschokurdach,Tsjokurdakh,Tsokurdah,Tsokurdahh,Txokurdakh,Tšokurdah,Tšokurdahh,chokurudafu,chwkwrdakh,qiao ku er da he,shwkwrdakh,Çokurdah,Čokurdach,Čokurdachas,Čokūrdāha,Чакурдах,Чокурдах,Чокуурдаах,Չոկուրդախ,شوكورداخ,چوکورداخ,チョクルダフ,喬庫爾達赫",2506,11.0,70.61897,147.8973,4931.95
Chontaul,"Chontaul,Tsjontaul,Чонтаул",8241,3.0,43.30481,46.85967,1533.39
Chornoye,"Chernoe,Chernoye,Chjornoe,Chornoye,Chërnoye,Черное,Чёрное",4047,3.0,55.74611,38.06889,28.38
Choya,"Chaya,Choja,Choya,Tsjoja,Чоя",1930,7.0,52.0108,86.5467,3166.03
Chuchkovo,"Chuchkovo,Tsjutsjkovo,Чучково",4404,3.0,54.27021,41.44746,294.64
Chudovo,"Chudovo,Chúdovo,Cudovo,Czudowo,Tchoudovo,Tchudovo,Tiutova,Tjudovo,Tschudowo,Tsjoedovo,Tsjudovo,Tsudovo,Tšudovo,chudobo,chudovuo,chwdwfw,qiu duo wo,tshwdwfw,Çudovo,Ĉudovo,Čudovo,Чудово,تشودوفو,چودوفو,チュドヴォ,丘多沃,추도보,Чудово",17377,3.0,59.12225,31.68125,515.92
Chufarovo,"Chufarovo,Tsjufarovo,Чуфарово",2671,4.0,54.0963,47.3367,647.26
Chuguyevka,"Chuguevka,Chuguyevka,Tsjugujevka,Чугуевка",13354,10.0,44.16652,133.86495,6433.7
Chukhloma,"Chukhloma,Tsjukhloma,Чухлома,Чухлома",5430,3.0,58.75304,42.68633,451.83
Chulym,"Chalyn,Chulim,Chulym,Tsjulym,Чулым,Чулым",11975,7.0,55.09972,80.95722,2690.92
Chul’man,"Chul'man,Chul’man,NER,Tsjulman,Utesnaya,Чульман",10220,9.0,56.84735,124.90812,5008.42
Chumikan,"Chumikan,Chumukan,Tsjumikan,Чумикан",1305,10.0,54.71857,135.3163,5655.3
Chunoyar,"Chunojar,Chunoyar,Tsjunojar,Чунояр",3240,7.0,57.4483,97.3286,3541.1
Chunskiy,"Chuna,Chunskij,Chunskiy,Tsjunskij,Чунский",16199,8.0,56.0815,99.6342,3731.91
Chupa,"Chup,Chupa,Cuuppa,Tsjupa,Tsuupa,Tsuuppa,Tšuupa,Tšuuppa,Čuuppa,Чупа",3954,3.0,66.27001,33.05486,1194.29
Chupryakovo,"Chuprjakovo,Chupryakovo,Чупряково",1951,3.0,55.55282,36.62721,65.85
Churapcha,"Churapcha,Tsjuraptsja,Чурапча",7280,9.0,61.99858,132.43341,4998.84
Churovichi,"Churovichi,Tsjurovitsji,Чуровичи",1349,3.0,52.1693,31.9926,541.92
Chusovoy,"Chusavoj,Chusovaya,Chusovij,Chusovoi,Chusovoj,Chusovoy,Chusovói,Chusva,Ciusovoi,Csuszovoj,Cusovoi,Cusovoj,Cusovoy,Cusowoj,Czusowoj,Tchoussovoi,Tchoussovoï,Tchussovoi,Tjusovoj,Tschussowoi,Tsjoesovoj,Tsjusovoj,Tsusovoi,Tšusovoi,Zavod Chusovskoye,chwswfwy,chwswwwyy,qiu suo wo yi,tshwswfwy,Çusovoy,Ĉusovoj,Čusovoi,Čusovoj,Čusowoj,Чусавой,Чусва,Чусовий,Чусовой,Чусовој,تشوسوفوي,چوسوفوی,چوسوووئی,丘索沃伊,Чусовой",50205,5.0,58.3013,57.8131,1249.59
Chyorny Yar,"Cherny Yar,Chernyj Jar,Chernyy Yar,Chjornyj Jar,Chyorny Yar,Chërnyy Yar,Tschernyi-jar,Tschernyjar,Tsjernyj Jar,Черный Яр,Чёрный Яр",8006,4.0,48.06242,46.10911,1033.08
Chërnaya Kholunitsa,"Chernaja Kholunica,Chernaya Kholunitsa,Chjornaja Kholunica,Chërnaya Kholunitsa,Tsjernaja Kholunitsa,Черная Холуница,Чёрная Холуница",1539,3.0,58.85115,51.71545,912.19
Dachnoye,"Dachnoe,Dachnoye,Tasnoi,Дачное",72822,3.0,59.84167,30.25583,629.37
Dagestanskiye Ogni,"Dagestanskie Ogni,Dagestanskije Ogni,Dagestanskiye Ogni,Дагестанские Огни,Дагестанские Огни",30671,3.0,42.1152296,48.1939354,1697.5
Dagomys,"Dagomys,Дагомыс",20000,3.0,43.66974,39.66863,1351.44
Dalakovo,"Dalakovo,Dallagkau,Dallakau,Dolakovo,Dollaqkau,Далаково,Долаково",9994,3.0,43.23759,44.58964,1478.11
Dalmatovo,"Dalmatava,Dalmatovo,Dalmatowo,Dolmatovo,da er ma tuo wo,dalmatobo,dalmatwfw,Далматава,Далматово,دالماتوفو,達爾馬托沃,달마토보,Далматово",14526,5.0,56.26,62.9362,1566.31
Dalnegorsk,"DHG,Dal'negorsk,Dalnegorsk,Дальнегорск,Дальнегорск",38424,10.0,44.55745,135.6209,6492.74
Dalnerechensk,"DLR,Dal'nerechensk,Dalnerechensk,Dalneretsjensk,Dal’nerechensk,Iman,Дальнереченск,Дальнереченск",28300,10.0,45.93149,133.73906,6280.7
Dal’neye Konstantinovo,"Dal'ne-Konstantinovo,Dal'nee Konstantinovo,Dal'neye Konstantinovo,Dalneje Konstantinovo,Dal’ne-Konstantinovo,Dal’neye Konstantinovo,Konstantinovo,Дальнее Константиново",4484,3.0,55.80844,44.0889,404.69
Danilov,"Danilau,Danilov,Danilow,Daniłow,dan ni luo fu,danillopeu,danirofu,danylwf,Данилов,Данілаў,دانيلوف,دانیلوف,ダニーロフ,丹尼洛夫,다닐로프,Данилов",16808,3.0,58.19077,40.17081,312.21
Danilovka,"Danilovka,Даниловка",5956,3.0,50.35573,44.11681,740.18
Danki,"Danki,Данки",1130,3.0,54.91806,37.57009,92.8
Dankov,"Dankou,Dankov,Dankova,Dankovo,Dankow,dan ke fu,dankwf,Данков,Данков балһсн,Данкоў,دانكوف,دانکوف,丹科夫,Данков",22913,3.0,53.24976,39.14409,295.23
Darasun,"Darasun,Дарасун",7755,9.0,51.6594,113.97515,4787.75
Darovskoy,"Darovskoj,Darovskoy,Darovskoye,Даровской",7261,3.0,58.76993,47.95787,705.64
Dauriya,"Dauria,Daurija,Dauriya,Daurskoye,Даурия",4058,9.0,49.93333,116.86667,5066.03
Davlekanovo,"Daulekanava,Davlekanova,Davlekanovo,Davlekaovo,Dawlekanowo,Dəvləkən,da fu lie ka nuo wo,dabeullekanobo,daburekanobo,daflykanwfw,dawlkanwfw,Давлеканово,Давлеканово балһсн,Даўлеканава,Дәүләкән,دافليكانوفو,داولکانوفو,ダブレカノボ,達夫列卡諾沃,다블레카노보,Давлеканово",24040,5.0,54.2226707,55.0312373,1120.97
Davydkovo,"Davydkovo,Давыдково",30000,3.0,55.71815,37.47271,9.71
Davydovka,"Davydovka,Davyidovka,Dawidowka,Давыдовка",5841,3.0,51.15781,39.42915,524.75
Davydovo,"Davydova,Davydovo,Dvydovo,Давыдово",10606,3.0,55.60859,38.86109,79.7
De-Kastri,"Chikhacheva,De-Kastri,Debastri,Decastri,Port De Kastri,Port Kastri,Де-Кастри",3615,10.0,51.47543,140.76986,6167.33
Debësy,"Debessy,Debesy,Debësy,Дебëсы",5800,4.0,57.6515,53.8089,1008.24
Dedenëvo,"Dedenevo,Dedenjovo,Dedenëvo,Деденёво",6455,3.0,56.24283,37.51769,54.89
Dedino,"Dedino,Дедино",0,3.0,56.24461,28.25059,584.44
Dedovichi,"Dedovichi,Dedovici,Dedovitsi,Dedovitsji,Dedovitši,Dedoviči,Dedowitschi,Дедовичи",9606,3.0,57.5516,29.94684,509.31
Dedovsk,"Dedovo,Dedovs'k,Dedovsk,Dedovskaj,Dedovskiy,Dedowsk,Diedowsk,Dzedausk,Dédovsk,ddwfsk,dedobseukeu,dedofusuku,dydwfsk,dykwwsk,jie duo fu si ke,Дедовск,Дедовск балһсн,Дедовскай,Дзедаўск,Дєдовськ,ددوفسک,ديدوفسك,دیکووسک,デドフスク,傑多夫斯克,데돕스크,Дедовск",29280,3.0,55.8703276,37.1245043,33.37
Degtyarsk,"Degtjarsk,Degtyarka,Degtyarsk,Дегтярск,Дегтярск",15521,5.0,56.7048206,60.079138,1386.27
Demidov,"Demidov,Demidow,Demídov,Diemidow,Dzjamidau,Porech'ye,Porech’ye,demidofu,demidopeu,dmydwf,dymydwf,jie mi duo fu,Демидов,Дзямідаў,دمیدوف,ديميدوف,デミドフ,傑米多夫,데미도프,Демидов",8516,3.0,55.27061,31.5161,387.63
Demikhovo,"Demikhova,Demikhovo,Демихово",5474,3.0,55.79685,38.88404,79.49
Demyansk,"Demjansk,Demyansk,Демянск",5693,3.0,57.64456,32.46568,378.17
Dem’yanovo,"Dem'janovo,Dem'yanovo,Demjanovo,Dem’yanovo,Демьяново",6148,3.0,60.35111,47.08417,754.94
Deputatsky,"DPT,Dehputacki,Deputats'kij,Deputatskaj,Deputatski,Deputatskij,Deputatskis,Deputatskiy,Deputatsky,Dieputatskij,Gyeputatszkij,deputatsuki,dpwtatayskay,dybwtatskyy  saha,jie pu ta ci ji,Депутатскай,Депутатски,Депутатский,Депутатський,Дэпутацкі,Դեպուտատսկիյ,ديبوتاتسكيي، ساها,دپوتاتایسکای,デプタツキー,傑普塔茨基",3484,10.0,69.30958,139.97571,4787.16
Derbent,"Cali,Chjali,Darband,Darbant,Derbend,Derbent,Derbenta,Derbentas,Derbente,Derbentum,Dzerbent,Dərbənd,K'vevar,Temyrkualeh,deleubenteu,derubento,drbnd,drbnt,jie er bin te,Дарбант,Дербенд,Дербент,Дербент балһсн,Дзербент,Дәрбәнт,Кьвевар,Темыркъалэ,Цали,Чяли,Դերբենդ,דרבנט,دربند,დერბენტი,デルベント,傑爾賓特,데르벤트,Дербент",119961,3.0,42.058966,48.2907452,1706.39
Dergachi,"Dergachi,Dergatsji,Дергачи",9570,4.0,51.2328,48.7659,890.9
Deshovki,"Deshovka,Deshovki,Desjovki,Дешовки",1042,3.0,54.00192,35.78812,227.02
Desnogorsk,"Desnogors'k,Desnogorsk,Desnoqorsk,Diesnogorsk,Dzjasnagorsk,deseunogoleuseukeu,desunogorusuku,dsnwgwrsk,dysnwghwrsk,jie si nuo ge er si ke,Десногорск,Десногорськ,Дзяснагорск,دسنوگورسک,ديسنوغورسك,デスノゴルスク,傑斯諾戈爾斯克,데스노고르스크,Десногорск",32451,3.0,54.15077,33.28151,329.0
Detchino,"Detchino,Dettsjino,Детчино",4838,3.0,54.80923,36.3075,133.63
Devitsa,"Devica,Devitsa,Девица",4389,3.0,51.63505,38.95607,466.21
Deyskoye,"Deiskoye,Dejskoe,Dejskoje,Deyskoye,Дейское",4736,3.0,43.47546,44.16182,1442.72
Digora,"Digora,Khristianskoye,Kiristonguaeu,Kristonghaew,Kristonghæw,Дигора,Киристонгъæу,Дигора",11999,3.0,43.15666,44.15629,1476.6
Dikson,"DKS,Dikson,Dikson qəsəbəsi,Diksonas,Port Dickson,dikuson,dyqswn,Диксон,Діксон,דיקסון,ディクソン",1113,7.0,73.50819,80.52918,2729.68
Dimitrovgrad,"Dimitrovgrad,Dimitrovgrad i Russland,Dimitrovgradas,Dimitrovqrad,Dimitrowgrad,Dzimitraugrad,Melekes,Melekess,Mitreen' osh,dimiteulobeugeuladeu,dimitorofugurado,dymytrwfghrad,dymytrwfgrad  rwsyh,dymytrwwgrad,ji mi te luo fu ge lei,Дзімітраўград,Димитровград,Мелекес,Митреень ош,Мәләкәс,ديميتروفغراد,دیمیتروفگراد، روسیه,دیمیترووگراد,ディミトロフグラード,季米特洛夫格勒,디미트로브그라드,Димитровград",132226,4.0,54.21386,49.61838,783.64
Dinskaya,"Dinskaja,Dinskaya,Динская",34573,3.0,45.21516,39.2265,1177.11
Diveyevo,"Diveevo,Divejevo,Diveyevo,Дивеево",6390,3.0,55.04071,43.24759,364.23
Divnogorsk,"Divnogors'k,Divnogorsk,Divnogorskas,Diwnogorsk,Dziunagorsk,Skit,dibeunogoleuseukeu,dyfnwghwrsk,dywnwgwrsk,ji fu nuo ge er si ke,Дзіўнагорск,Дивногорск,Дивногорськ,ديفنوغورسك,دیونوگورسک,季夫諾戈爾斯克,디브노고르스크,Дивногорск",30018,7.0,55.9581,92.3726,3326.66
Divnomorskoye,"Divnomorskoe,Divnomorskoje,Divnomorskoye,Fal'shivy Gelendzhik,Fal'shivyy Gelendzhik,Fal’shivy Gelendzhik,Fal’shivyy Gelendzhik,Дивноморское",5880,3.0,44.5017,38.1342,1251.54
Divnoye,"Divnoe,Divnoje,Divnoye,Diwnoje,Дивное",15700,3.0,45.90973,43.34943,1165.19
Dmitriyev,Дмитриев,7721,3.0,52.1268464,35.0739038,436.03
Dmitriyevka,"Dmitrievka,Dmitriyevka,Дмитриевка",3796,5.0,54.75,55.33333,1125.33
Dmitriyevskaya,"Dmitrievskaja,Dmitrijevskaja,Dmitriyevskaya,Дмитриевская",3412,3.0,45.65639,40.76528,1144.0
Dmitriyevskoye,"Dmitrievskaja,Dmitrievskoe,Dmitriyevskaya,Dmitriyevskoye,Novo-Dimitrievskoe,Дмитриевская,Дмитриевское",3442,3.0,45.80529,41.89667,1145.72
Dmitrov,"Demitriovia,Dmitrov,Dmitrow,Dmítrov,Dzmitrau,de mi te luo fu,deumiteulopeu,dmitrov,dmtrwf,dmytrwf,domitorofu,dymytrwf,Дзмітраў,Дмитров,Дмитров балһсн,دمتروف,دميتروف,دیمیتروف,ドミトロフ,德米特罗夫,드미트로프",61607,3.0,56.34485,37.52041,66.16
Dmitrovsk,"Dmitrovka,Dmitrovsk,Dmitrovsk-Orlovskij,Dmitrovsk-Orlovskiy,Dmitrowsk,Дмитровка,Дмитровск,Дмитровск-Орловский,Дмитровск",6366,3.0,52.505,35.1464,395.23
Dmitrovskiy Pogost,"Dmitrovskij Pogost,Dmitrovskiy Pogost,Дмитровский Погост",2100,3.0,55.31333,39.83358,147.86
Dneprovskaya,"Dneprovskaja,Dneprovskaya,Dnjeprowskaja,Днепровская",3236,3.0,45.62359,38.80807,1129.34
Dno,"Dno,de nuo,deuno,dnw,dono,Дно,دنو,ドノー,德诺,드노,Дно",9607,3.0,57.82882,29.96917,519.38
Dobrinka,"Dobrinka,Добринка",10063,3.0,52.16528,40.47306,440.4
Dobroye,"Dobroe,Dobroje,Dobroye,Доброе",5550,3.0,52.8626,39.80506,351.26
Dobrun’,"Dobrun,Dobrun',Dobrun’,Добрунь",4123,3.0,53.18512,34.24625,358.92
Dobryanka,"Dobrjanka,Dobryanka,Dobryansk,Добрянка,Добрянка",35720,5.0,58.469685,56.4130737,1170.22
Dobryatino,"Dobriatino,Dobrjatino,Dobryatino,Добрятино",1934,3.0,55.5055,41.3195,234.1
Dolgoderevenskoye,"Dolgoderevenskoe,Dolgoderevenskoje,Dolgoderevenskoye,Долгодеревенское",6976,5.0,55.34444,61.34444,1486.03
Dolgoprudny,Долгопрудный,90976,3.0,55.9385999,37.5101021,21.75
Dolgoprudnyy,"Dolgoprodnyy,Dolgoprudni,Dolgoprudny,Dolgoprudnyi,Dolgoprudnyj,Dolgoprudnyy,Dolgoprudyy,Долгопрудный",68259,3.0,55.94958,37.50183,23.07
Dolgorukovo,"Dolgorukovo,Долгоруково",5599,3.0,52.32319,38.35412,384.32
Dolgoye,"Dolgaya,Dolgoe,Dolgoje,Dolgoye,Mikhaylovka,Долгое",0,3.0,52.05814,37.52491,410.81
Dolinsk,"Dolins'k,Dolinsk,Garuginourasukoe,Ochiai,Oshiai,Otiai,Otiay,dollinseukeu,dorinsuku,duo lin si ke,dwlynsk,dwlynsk  skhaln awblast,Долинск,Долинськ,Долінск,دولينسك,دولینسک,دولینسک، سخالن اوبلاست,ドリンスク,多林斯克,돌린스크,Долинск",12200,11.0,47.3255783,142.7945071,6613.73
Dolzhanskaya,"Doljansk,Dolshanskaja,Dolzanskaja,Dolzhanka,Dolzhans'ka,Dolzhanskaja,Dolzhanskaya,Dolzhánskaya,Dolzjanskaja,Dołżanskaja,Stanitsa Dolzhanskaya,Должанская,Должанська",7194,3.0,46.63369,37.80246,1014.02
Dombarovskiy,"Dombarovskij,Dombarovskiy,Домбаровский",9556,5.0,50.7587,59.5386,1552.38
Domna,"Demninskoye,Dominskoye,Domna,Domninskoye,Domno,Домна",6576,9.0,51.89712,113.1573,4726.8
Domodedovo,"Damadzedava,Domodedova,Domodedovas,Domodedovo,Domodedowo,Domodiedowo,Domodédovo,Domodědovo,domodedobo,domojedovuo,duo mo jie duo wo,dwmwddwfw,dwmwdydwfw,dwmwdydww,Дамадзедава,Домодедово,Домодедово балһсн,Домодєдово,دوموددوفو,دوموديدوفو,دومودیدوو,ドモジェドヴォ,多莫傑多沃,도모데도보,Домодедово",96123,3.0,55.4363283,37.7664984,36.38
Dondukovskaya,"Dondukovs'ka,Dondukovskaia,Dondukovskaja,Dondukovskaya,Dondukovski,Dondukowskaja,Dondukóvskaia,Dondukóvskaya,dwndwkwfskaya,dwndwkwwskaya,Дондуковская,Дондуковски,Дондуковська,Դոնդուկովսկայա,دوندوکوفسکایا,دوندوکووسکایا",6609,3.0,44.8819,40.36271,1224.11
Donetsk,"Daneck,Donec'k,Doneck,Donecka,Donetk,Donets'k,Donetsk,Donetsk i Russland,Donets’k,Donezk,Donețk,Donieck,Donjeck,Doněck,Doņecka,Gunderovskaya,Gundorovka,Gundorovskaya,Gundurovka,donecheukeu,dun nie ci ke,dwntsk,dwntsk  rwsyh,Данецк,Донецк,Донецк балһсн,Донецьк,Доњецк,دونتسک,دونتسک، روسیه,頓涅茨克,도네츠크,Донецк",50850,3.0,48.33962,39.95948,839.56
Donskoy,"Donskoj,Donskoy,Донской,Донской",64561,3.0,53.9678944,38.3371824,203.71
Donskoye,"Donskoe,Donskoje,Donskoye,Донское",15469,3.0,45.45346,41.97244,1185.13
Dorgeli,"Dorgeli,Durgeli,Доргели",5185,3.0,42.667,47.29435,1612.42
Dorogino,"Darogina,Dorogina,Dorogino,duo luo ji nuo,dwrwjynw,Дарогіна,Дорогино,Դորոգինո,دوروجینو,多罗吉诺",3762,7.0,54.3598,83.3198,2861.92
